[
  {
    "id": 100014,
    "name": "BEDFORD PK BL/GRAND CONCOURSE",
    "description": "",
    "accessible": 1,
    "lat": 40.872562,
    "lng": -73.888156
  },
  {
    "id": 100017,
    "name": "PAUL AV/W 205 ST",
    "description": "",
    "accessible": 1,
    "lat": 40.876836,
    "lng": -73.88971
  },
  {
    "id": 100018,
    "name": "PAUL AV/W MOSHOLU PY S",
    "description": "",
    "accessible": 1,
    "lat": 40.880392,
    "lng": -73.886081
  },
  {
    "id": 100019,
    "name": "GRAND CONCOURSE/E 138 ST",
    "description": "",
    "accessible": 1,
    "lat": 40.813496,
    "lng": -73.929489
  },
  {
    "id": 100020,
    "name": "GRAND CONCOURSE/E 144 ST",
    "description": "",
    "accessible": 1,
    "lat": 40.816812,
    "lng": -73.928001
  },
  {
    "id": 100021,
    "name": "GRAND CONCOURSE/E 149 ST",
    "description": "",
    "accessible": 1,
    "lat": 40.818856,
    "lng": -73.927096
  },
  {
    "id": 100022,
    "name": "GRAND CONCOURSE/E 153 ST",
    "description": "",
    "accessible": 1,
    "lat": 40.821103,
    "lng": -73.925751
  },
  {
    "id": 100025,
    "name": "GRAND CONCOURSE/E 161 ST",
    "description": "",
    "accessible": 1,
    "lat": 40.826453,
    "lng": -73.922795
  },
  {
    "id": 100026,
    "name": "GRAND CONCOURSE/E 163 ST",
    "description": "",
    "accessible": 1,
    "lat": 40.828837,
    "lng": -73.921328
  },
  {
    "id": 100027,
    "name": "GRAND CONCOURSE/E 165 ST",
    "description": "",
    "accessible": 1,
    "lat": 40.831317,
    "lng": -73.919938
  },
  {
    "id": 100028,
    "name": "GRAND CONCOURSE/MC CLELLAN ST",
    "description": "",
    "accessible": 1,
    "lat": 40.833276,
    "lng": -73.918555
  },
  {
    "id": 100029,
    "name": "GRAND CONCOURSE/E 167 ST",
    "description": "",
    "accessible": 1,
    "lat": 40.834762,
    "lng": -73.917133
  },
  {
    "id": 100030,
    "name": "GRAND CONCOURSE/E 169 ST",
    "description": "",
    "accessible": 1,
    "lat": 40.83657,
    "lng": -73.915371
  },
  {
    "id": 100033,
    "name": "GRAND CONCOURSE/MT EDEN AV",
    "description": "",
    "accessible": 1,
    "lat": 40.843511,
    "lng": -73.911556
  },
  {
    "id": 100035,
    "name": "GRAND CONCOURSE/E 175 ST",
    "description": "",
    "accessible": 1,
    "lat": 40.846739,
    "lng": -73.908556
  },
  {
    "id": 100038,
    "name": "GRAND CONCOURSE/E 179 ST",
    "description": "",
    "accessible": 1,
    "lat": 40.85093,
    "lng": -73.904494
  },
  {
    "id": 100039,
    "name": "GRAND CONCOURSE/E BURNSIDE AV",
    "description": "",
    "accessible": 1,
    "lat": 40.852087,
    "lng": -73.903564
  },
  {
    "id": 100040,
    "name": "GRAND CONCOURSE/E 180 ST",
    "description": "",
    "accessible": 1,
    "lat": 40.853719,
    "lng": -73.902245
  },
  {
    "id": 100041,
    "name": "GRAND CONCOURSE/E 182 ST",
    "description": "",
    "accessible": 1,
    "lat": 40.856254,
    "lng": -73.900358
  },
  {
    "id": 100044,
    "name": "GRAND CONCOURSE/E 187 ST",
    "description": "",
    "accessible": 1,
    "lat": 40.860569,
    "lng": -73.897865
  },
  {
    "id": 100045,
    "name": "GRAND CONCOURSE/E FORDHAM RD",
    "description": "",
    "accessible": 1,
    "lat": 40.863097,
    "lng": -73.896368
  },
  {
    "id": 100047,
    "name": "GRAND CONCOURSE/E KINGSBRIDGE RD",
    "description": "",
    "accessible": 1,
    "lat": 40.866343,
    "lng": -73.893861
  },
  {
    "id": 100048,
    "name": "GRAND CONCOURSE/E 196 ST",
    "description": "",
    "accessible": 1,
    "lat": 40.868079,
    "lng": -73.892542
  },
  {
    "id": 100049,
    "name": "GRAND CONCOURSE/E 198 ST",
    "description": "",
    "accessible": 1,
    "lat": 40.870243,
    "lng": -73.89042
  },
  {
    "id": 100052,
    "name": "GRAND CONCOURSE/E 206 ST",
    "description": "",
    "accessible": 1,
    "lat": 40.876301,
    "lng": -73.88551
  },
  {
    "id": 100053,
    "name": "GRAND CONCOURSE/E MOSHOLU PY S",
    "description": "",
    "accessible": 1,
    "lat": 40.877992,
    "lng": -73.884717
  },
  {
    "id": 100054,
    "name": "E MOSHOLU PKY S/JEROME AV",
    "description": "",
    "accessible": 1,
    "lat": 40.879494,
    "lng": -73.8856
  },
  {
    "id": 100055,
    "name": "W MOSHOLU PY S/PAUL AV",
    "description": "",
    "accessible": 1,
    "lat": 40.880437,
    "lng": -73.885902
  },
  {
    "id": 100056,
    "name": "SEDGWICK AV/DICKINSON AV",
    "description": "",
    "accessible": 1,
    "lat": 40.882915,
    "lng": -73.887474
  },
  {
    "id": 100057,
    "name": "SEDGWICK AV/HILLMAN AV",
    "description": "",
    "accessible": 1,
    "lat": 40.882463,
    "lng": -73.891351
  },
  {
    "id": 100058,
    "name": "SEDGWICK AV/VAN CORTLANDT AV W",
    "description": "",
    "accessible": 1,
    "lat": 40.882827,
    "lng": -73.893361
  },
  {
    "id": 100059,
    "name": "SEDGWICK AV/STEVENSON PL",
    "description": "",
    "accessible": 1,
    "lat": 40.882691,
    "lng": -73.895187
  },
  {
    "id": 100060,
    "name": "SEDGWICK AV/GILES PL",
    "description": "",
    "accessible": 1,
    "lat": 40.880925,
    "lng": -73.896698
  },
  {
    "id": 100061,
    "name": "SEDGWICK AV/FT INDEPENDENCE ST",
    "description": "",
    "accessible": 1,
    "lat": 40.878651,
    "lng": -73.897918
  },
  {
    "id": 100062,
    "name": "HEATH AV/SUMMIT PL",
    "description": "",
    "accessible": 1,
    "lat": 40.877891,
    "lng": -73.901519
  },
  {
    "id": 100063,
    "name": "ALBANY CR/BAILEY AV",
    "description": "",
    "accessible": 1,
    "lat": 40.876877,
    "lng": -73.903177
  },
  {
    "id": 100064,
    "name": "W 231 ST/BAILEY AV",
    "description": "",
    "accessible": 1,
    "lat": 40.878232,
    "lng": -73.90277
  },
  {
    "id": 100065,
    "name": "W 231 ST/BROADWAY",
    "description": "",
    "accessible": 1,
    "lat": 40.879254,
    "lng": -73.9054
  },
  {
    "id": 100066,
    "name": "W 231 ST/KINGSBRIDGE AV",
    "description": "",
    "accessible": 1,
    "lat": 40.880047,
    "lng": -73.906872
  },
  {
    "id": 100068,
    "name": "RIVERDALE AV/GREYSTONE AV",
    "description": "",
    "accessible": 1,
    "lat": 40.884362,
    "lng": -73.90747
  },
  {
    "id": 100069,
    "name": "RIVERDALE AV/W 236 ST",
    "description": "",
    "accessible": 1,
    "lat": 40.88695,
    "lng": -73.90696
  },
  {
    "id": 100070,
    "name": "RIVERDALE AV/W 238 ST",
    "description": "",
    "accessible": 1,
    "lat": 40.888109,
    "lng": -73.907428
  },
  {
    "id": 100071,
    "name": "HENRY HUDSON PKY E/W 239 ST",
    "description": "",
    "accessible": 1,
    "lat": 40.889537,
    "lng": -73.908059
  },
  {
    "id": 100076,
    "name": "RIVERDALE AV/W 238 ST",
    "description": "",
    "accessible": 1,
    "lat": 40.887911,
    "lng": -73.907577
  },
  {
    "id": 100077,
    "name": "RIVERDALE AV/W 236 ST",
    "description": "",
    "accessible": 1,
    "lat": 40.886429,
    "lng": -73.907076
  },
  {
    "id": 100080,
    "name": "PAUL AV/BEDFORD PK BL",
    "description": "",
    "accessible": 1,
    "lat": 40.874629,
    "lng": -73.891539
  },
  {
    "id": 100082,
    "name": "W 231 ST/RIVERDALE AV",
    "description": "",
    "accessible": 1,
    "lat": 40.881211,
    "lng": -73.90921
  },
  {
    "id": 100084,
    "name": "W 231 ST/BROADWAY",
    "description": "",
    "accessible": 1,
    "lat": 40.878698,
    "lng": -73.904415
  },
  {
    "id": 100085,
    "name": "W 231 ST/BAILEY AV",
    "description": "",
    "accessible": 1,
    "lat": 40.878029,
    "lng": -73.902633
  },
  {
    "id": 100087,
    "name": "HEATH AV/SUMMIT PL",
    "description": "",
    "accessible": 1,
    "lat": 40.878321,
    "lng": -73.900958
  },
  {
    "id": 100088,
    "name": "SEDGWICK AV/FT INDEPENDENCE ST",
    "description": "",
    "accessible": 1,
    "lat": 40.878665,
    "lng": -73.897767
  },
  {
    "id": 100089,
    "name": "SEDGWICK AV/GILES PL",
    "description": "",
    "accessible": 1,
    "lat": 40.881501,
    "lng": -73.896448
  },
  {
    "id": 100090,
    "name": "SEDGWICK AV/STEVENSON PL 1",
    "description": "",
    "accessible": 1,
    "lat": 40.882913,
    "lng": -73.894366
  },
  {
    "id": 100096,
    "name": "GRAND CONCOURSE/VAN CORTLANDT AV E",
    "description": "",
    "accessible": 1,
    "lat": 40.876996,
    "lng": -73.885681
  },
  {
    "id": 100098,
    "name": "GRAND CONCOURSE/BEDFORD PK BL",
    "description": "",
    "accessible": 1,
    "lat": 40.872033,
    "lng": -73.888206
  },
  {
    "id": 100100,
    "name": "GRAND CONCOURSE/E 196 ST",
    "description": "",
    "accessible": 1,
    "lat": 40.868052,
    "lng": -73.89312
  },
  {
    "id": 100101,
    "name": "GRAND CONCOURSE/E KINGSBRIDGE RD",
    "description": "",
    "accessible": 1,
    "lat": 40.865775,
    "lng": -73.894863
  },
  {
    "id": 100102,
    "name": "GRAND CONCOURSE/E 192 ST",
    "description": "",
    "accessible": 1,
    "lat": 40.863998,
    "lng": -73.896254
  },
  {
    "id": 100103,
    "name": "GRAND CONCOURSE/E FORDHAM RD",
    "description": "",
    "accessible": 1,
    "lat": 40.86223,
    "lng": -73.897531
  },
  {
    "id": 100107,
    "name": "GRAND CONCOURSE/E 182 ST",
    "description": "",
    "accessible": 1,
    "lat": 40.855821,
    "lng": -73.90123
  },
  {
    "id": 100108,
    "name": "GRAND CONCOURSE/E 181 ST",
    "description": "",
    "accessible": 1,
    "lat": 40.854276,
    "lng": -73.902425
  },
  {
    "id": 100109,
    "name": "GRAND CONCOURSE/E BURNSIDE AV",
    "description": "",
    "accessible": 1,
    "lat": 40.852653,
    "lng": -73.903733
  },
  {
    "id": 100110,
    "name": "GRAND CONCOURSE/E 179 ST",
    "description": "",
    "accessible": 1,
    "lat": 40.851248,
    "lng": -73.904866
  },
  {
    "id": 100112,
    "name": "GRAND CONCOURSE/MORRIS AV",
    "description": "",
    "accessible": 1,
    "lat": 40.846914,
    "lng": -73.909021
  },
  {
    "id": 100113,
    "name": "GRAND CONCOURSE/E 174 ST",
    "description": "",
    "accessible": 1,
    "lat": 40.844861,
    "lng": -73.911551
  },
  {
    "id": 100114,
    "name": "GRAND CONCOURSE/E MT EDEN AV",
    "description": "",
    "accessible": 1,
    "lat": 40.842905,
    "lng": -73.912309
  },
  {
    "id": 100115,
    "name": "GRAND CONCOURSE/E 172 ST",
    "description": "",
    "accessible": 1,
    "lat": 40.840638,
    "lng": -73.913071
  },
  {
    "id": 100117,
    "name": "GRAND CONCOURSE/E CLARKE PL",
    "description": "",
    "accessible": 1,
    "lat": 40.836746,
    "lng": -73.915851
  },
  {
    "id": 100118,
    "name": "GRAND CONCOURSE/E 167 ST",
    "description": "",
    "accessible": 1,
    "lat": 40.834228,
    "lng": -73.918308
  },
  {
    "id": 100119,
    "name": "GRAND CONCOURSE/McCLELLAN ST",
    "description": "",
    "accessible": 1,
    "lat": 40.833254,
    "lng": -73.919209
  },
  {
    "id": 100126,
    "name": "MELROSE AV/E 158 ST",
    "description": "",
    "accessible": 1,
    "lat": 40.822016,
    "lng": -73.91506
  },
  {
    "id": 100129,
    "name": "MELROSE AV/E 152 ST",
    "description": "",
    "accessible": 1,
    "lat": 40.817929,
    "lng": -73.917028
  },
  {
    "id": 100131,
    "name": "GRAND CONCOURSE/E 165 ST",
    "description": "",
    "accessible": 1,
    "lat": 40.831175,
    "lng": -73.920603
  },
  {
    "id": 100132,
    "name": "GRAND CONCOURSE/E 163 ST",
    "description": "",
    "accessible": 1,
    "lat": 40.828357,
    "lng": -73.922106
  },
  {
    "id": 100133,
    "name": "GRAND CONCOURSE/E 161 ST",
    "description": "",
    "accessible": 1,
    "lat": 40.826258,
    "lng": -73.923044
  },
  {
    "id": 100135,
    "name": "GRAND CONCOURSE/E 156 ST",
    "description": "",
    "accessible": 1,
    "lat": 40.823109,
    "lng": -73.924629
  },
  {
    "id": 100136,
    "name": "GRAND CONCOURSE/E 153 ST",
    "description": "",
    "accessible": 1,
    "lat": 40.82113,
    "lng": -73.925891
  },
  {
    "id": 100138,
    "name": "GRAND CONCOURSE/E 149 ST",
    "description": "",
    "accessible": 1,
    "lat": 40.818702,
    "lng": -73.927286
  },
  {
    "id": 100139,
    "name": "GRAND CONCOURSE/E 144 ST",
    "description": "",
    "accessible": 1,
    "lat": 40.816194,
    "lng": -73.928408
  },
  {
    "id": 100140,
    "name": "GRAND CONCOURSE/E 138 ST",
    "description": "",
    "accessible": 1,
    "lat": 40.813486,
    "lng": -73.930284
  },
  {
    "id": 100148,
    "name": "UNIVERSITY AV/N OF WASHINGTON BDG",
    "description": "",
    "accessible": 1,
    "lat": 40.845711,
    "lng": -73.921894
  },
  {
    "id": 100149,
    "name": "UNIVERSITY AV/W 174 ST",
    "description": "",
    "accessible": 1,
    "lat": 40.846858,
    "lng": -73.92044
  },
  {
    "id": 100151,
    "name": "UNIVERSITY AV/W 176 ST",
    "description": "",
    "accessible": 1,
    "lat": 40.849217,
    "lng": -73.917023
  },
  {
    "id": 100152,
    "name": "UNIVERSITY AV/W TREMONT AV",
    "description": "",
    "accessible": 1,
    "lat": 40.850268,
    "lng": -73.915494
  },
  {
    "id": 100153,
    "name": "UNIVERSITY AV/MORTON PL",
    "description": "",
    "accessible": 1,
    "lat": 40.852194,
    "lng": -73.913668
  },
  {
    "id": 100155,
    "name": "UNIVERSITY AV/W BURNSIDE AV",
    "description": "",
    "accessible": 1,
    "lat": 40.854707,
    "lng": -73.911236
  },
  {
    "id": 100156,
    "name": "UNIVERSITY AV/W 181 ST",
    "description": "",
    "accessible": 1,
    "lat": 40.857351,
    "lng": -73.909569
  },
  {
    "id": 100157,
    "name": "UNIVERSITY AV/W 183 ST",
    "description": "",
    "accessible": 1,
    "lat": 40.859697,
    "lng": -73.907623
  },
  {
    "id": 100159,
    "name": "UNIVERSITY AV/W FORDHAM RD",
    "description": "",
    "accessible": 1,
    "lat": 40.862638,
    "lng": -73.904979
  },
  {
    "id": 100161,
    "name": "UNIVERSITY AV/W 190 ST",
    "description": "",
    "accessible": 1,
    "lat": 40.865519,
    "lng": -73.903034
  },
  {
    "id": 100162,
    "name": "UNIVERSITY AV/W 192 ST",
    "description": "",
    "accessible": 1,
    "lat": 40.86722,
    "lng": -73.901763
  },
  {
    "id": 100164,
    "name": "W KINGSBRIDGE RD/SEDGWICK AV",
    "description": "",
    "accessible": 1,
    "lat": 40.869541,
    "lng": -73.903603
  },
  {
    "id": 100166,
    "name": "SEDGWICK AV/W 197 ST",
    "description": "",
    "accessible": 1,
    "lat": 40.872786,
    "lng": -73.901961
  },
  {
    "id": 100169,
    "name": "FT INDEPENDENCE/GILES PL",
    "description": "",
    "accessible": 1,
    "lat": 40.878638,
    "lng": -73.898998
  },
  {
    "id": 100170,
    "name": "FT INDEPENDENCE ST/BAILEY PL",
    "description": "",
    "accessible": 1,
    "lat": 40.880716,
    "lng": -73.899081
  },
  {
    "id": 100171,
    "name": "W 238 ST/ORLOFF AV",
    "description": "",
    "accessible": 1,
    "lat": 40.883001,
    "lng": -73.897776
  },
  {
    "id": 100172,
    "name": "W 238 ST/BAILEY AV",
    "description": "",
    "accessible": 1,
    "lat": 40.884297,
    "lng": -73.898273
  },
  {
    "id": 100173,
    "name": "W 238 ST/BROADWAY",
    "description": "",
    "accessible": 1,
    "lat": 40.885085,
    "lng": -73.900434
  },
  {
    "id": 100176,
    "name": "W 238 ST/BROADWAY",
    "description": "",
    "accessible": 1,
    "lat": 40.884969,
    "lng": -73.900478
  },
  {
    "id": 100177,
    "name": "W 238 ST/BAILEY AV",
    "description": "",
    "accessible": 1,
    "lat": 40.884069,
    "lng": -73.89823
  },
  {
    "id": 100178,
    "name": "W 238 ST/ORLOFF AV",
    "description": "",
    "accessible": 1,
    "lat": 40.882502,
    "lng": -73.898138
  },
  {
    "id": 100179,
    "name": "FT INDEPENDENCE ST/BAILEY PL",
    "description": "",
    "accessible": 1,
    "lat": 40.881015,
    "lng": -73.8992
  },
  {
    "id": 100180,
    "name": "FT INDEPENDENCE ST/HEATH AV",
    "description": "",
    "accessible": 1,
    "lat": 40.878971,
    "lng": -73.899692
  },
  {
    "id": 100183,
    "name": "SEDGWICK AV/W 197 ST",
    "description": "",
    "accessible": 1,
    "lat": 40.872199,
    "lng": -73.902327
  },
  {
    "id": 100187,
    "name": "UNIVERSITY AV/W 192 ST",
    "description": "",
    "accessible": 1,
    "lat": 40.867105,
    "lng": -73.902085
  },
  {
    "id": 100188,
    "name": "UNIVERSITY AV/W 190 ST",
    "description": "",
    "accessible": 1,
    "lat": 40.865122,
    "lng": -73.903489
  },
  {
    "id": 100189,
    "name": "UNIVERSITY AV/W FORDHAM RD",
    "description": "",
    "accessible": 1,
    "lat": 40.862861,
    "lng": -73.904923
  },
  {
    "id": 100191,
    "name": "UNIVERSITY AV/W 183 ST",
    "description": "",
    "accessible": 1,
    "lat": 40.859354,
    "lng": -73.908072
  },
  {
    "id": 100195,
    "name": "UNIVERSITY AV/W TREMONT AV",
    "description": "",
    "accessible": 1,
    "lat": 40.850235,
    "lng": -73.916007
  },
  {
    "id": 100199,
    "name": "UNIVERSITY AV/WASHINGTON BRIDGE",
    "description": "",
    "accessible": 1,
    "lat": 40.845313,
    "lng": -73.922556
  },
  {
    "id": 100204,
    "name": "WESTCHESTER AV/ST ANNS AV",
    "description": "",
    "accessible": 1,
    "lat": 40.816026,
    "lng": -73.912148
  },
  {
    "id": 100206,
    "name": "WESTCHESTER AV/JACKSON AV",
    "description": "",
    "accessible": 1,
    "lat": 40.816164,
    "lng": -73.90832
  },
  {
    "id": 100207,
    "name": "WESTCHESTER AV/E 156 ST",
    "description": "",
    "accessible": 1,
    "lat": 40.817829,
    "lng": -73.905423
  },
  {
    "id": 100209,
    "name": "WESTCHESTER AV/PROSPECT AV",
    "description": "",
    "accessible": 1,
    "lat": 40.819413,
    "lng": -73.902025
  },
  {
    "id": 100211,
    "name": "WESTCHESTER AV/REV J POLITE AV",
    "description": "",
    "accessible": 1,
    "lat": 40.82088,
    "lng": -73.899106
  },
  {
    "id": 100212,
    "name": "WESTCHESTER AV/INTERVALE AV",
    "description": "",
    "accessible": 1,
    "lat": 40.821942,
    "lng": -73.897089
  },
  {
    "id": 100214,
    "name": "WESTCHESTER AV/SIMPSON ST",
    "description": "",
    "accessible": 1,
    "lat": 40.824006,
    "lng": -73.893119
  },
  {
    "id": 100219,
    "name": "WESTCHESTER AV/WHITLOCK AV",
    "description": "",
    "accessible": 1,
    "lat": 40.827495,
    "lng": -73.886273
  },
  {
    "id": 100221,
    "name": "WESTCHESTER AV/ELDER AV",
    "description": "",
    "accessible": 1,
    "lat": 40.828514,
    "lng": -73.879317
  },
  {
    "id": 100223,
    "name": "WESTCHESTER AV/MANOR AV",
    "description": "",
    "accessible": 1,
    "lat": 40.828936,
    "lng": -73.876559
  },
  {
    "id": 100224,
    "name": "WESTCHESTER AV/MORRISON AV",
    "description": "",
    "accessible": 1,
    "lat": 40.829418,
    "lng": -73.874811
  },
  {
    "id": 100227,
    "name": "WESTCHESTER AV/ST LAWRENCE AV",
    "description": "",
    "accessible": 1,
    "lat": 40.831479,
    "lng": -73.867565
  },
  {
    "id": 100230,
    "name": "WESTCHESTER AV/WHITE PLAINS RD",
    "description": "",
    "accessible": 1,
    "lat": 40.83278,
    "lng": -73.862939
  },
  {
    "id": 100232,
    "name": "WESTCHESTER AV/PUGSLEY AV",
    "description": "",
    "accessible": 1,
    "lat": 40.833501,
    "lng": -73.857922
  },
  {
    "id": 100233,
    "name": "WESTCHESTER AV/OLMSTEAD AV",
    "description": "",
    "accessible": 1,
    "lat": 40.833915,
    "lng": -73.854443
  },
  {
    "id": 100234,
    "name": "WESTCHESTER AV/CASTLE HILL AV",
    "description": "",
    "accessible": 1,
    "lat": 40.834155,
    "lng": -73.851827
  },
  {
    "id": 100235,
    "name": "WESTCHESTER AV/ZEREGA AV",
    "description": "",
    "accessible": 1,
    "lat": 40.836705,
    "lng": -73.846717
  },
  {
    "id": 100236,
    "name": "WESTCHESTER AV/ST PETERS AV",
    "description": "",
    "accessible": 1,
    "lat": 40.83843,
    "lng": -73.844688
  },
  {
    "id": 100239,
    "name": "WESTCHESTER AV/ST PETERS AV",
    "description": "",
    "accessible": 1,
    "lat": 40.838694,
    "lng": -73.844549
  },
  {
    "id": 100240,
    "name": "WESTCHESTER AV/ZEREGA AV",
    "description": "",
    "accessible": 1,
    "lat": 40.836939,
    "lng": -73.846611
  },
  {
    "id": 100242,
    "name": "WESTCHESTER AV/CASTLE HILL AV",
    "description": "",
    "accessible": 1,
    "lat": 40.834285,
    "lng": -73.851469
  },
  {
    "id": 100243,
    "name": "WESTCHESTER AV/OLMSTEAD AV",
    "description": "",
    "accessible": 1,
    "lat": 40.834011,
    "lng": -73.854454
  },
  {
    "id": 100244,
    "name": "WESTCHESTER AV/PUGSLEY AV",
    "description": "",
    "accessible": 1,
    "lat": 40.833634,
    "lng": -73.857595
  },
  {
    "id": 100245,
    "name": "HUGH GRANT CIR/CROSS BX SVC RD",
    "description": "",
    "accessible": 1,
    "lat": 40.833603,
    "lng": -73.861155
  },
  {
    "id": 100246,
    "name": "WESTCHESTER AV/WHITE PLAINS RD",
    "description": "",
    "accessible": 1,
    "lat": 40.833124,
    "lng": -73.862536
  },
  {
    "id": 100249,
    "name": "WESTCHESTER AV/ST LAWRENCE AV",
    "description": "",
    "accessible": 1,
    "lat": 40.83174,
    "lng": -73.867069
  },
  {
    "id": 100253,
    "name": "WESTCHESTER AV/MORRISON AV",
    "description": "",
    "accessible": 1,
    "lat": 40.829621,
    "lng": -73.874493
  },
  {
    "id": 100254,
    "name": "WESTCHESTER AV/MANOR AV",
    "description": "",
    "accessible": 1,
    "lat": 40.829099,
    "lng": -73.876293
  },
  {
    "id": 100256,
    "name": "WESTCHESTER AV/ELDER AV",
    "description": "",
    "accessible": 1,
    "lat": 40.828652,
    "lng": -73.879059
  },
  {
    "id": 100259,
    "name": "WESTCHESTER AV/HOME ST",
    "description": "",
    "accessible": 1,
    "lat": 40.827447,
    "lng": -73.886598
  },
  {
    "id": 100260,
    "name": "WESTCHESTER AV/HOE AV",
    "description": "",
    "accessible": 1,
    "lat": 40.825369,
    "lng": -73.890606
  },
  {
    "id": 100261,
    "name": "WESTCHESTER AV/SIMPSON ST",
    "description": "",
    "accessible": 1,
    "lat": 40.82431,
    "lng": -73.892769
  },
  {
    "id": 100264,
    "name": "WESTCHESTER AV/E 163 ST",
    "description": "",
    "accessible": 1,
    "lat": 40.821181,
    "lng": -73.898798
  },
  {
    "id": 100265,
    "name": "WESTCHESTER AV/PROSPECT AV",
    "description": "",
    "accessible": 1,
    "lat": 40.819923,
    "lng": -73.901226
  },
  {
    "id": 100267,
    "name": "WESTCHESTER AV/TINTON AV",
    "description": "",
    "accessible": 1,
    "lat": 40.818205,
    "lng": -73.904801
  },
  {
    "id": 100268,
    "name": "WESTCHESTER AV/JACKSON AV",
    "description": "",
    "accessible": 1,
    "lat": 40.816511,
    "lng": -73.907907
  },
  {
    "id": 100270,
    "name": "WESTCHESTER AV/ST ANNS AV",
    "description": "",
    "accessible": 1,
    "lat": 40.816075,
    "lng": -73.91173
  },
  {
    "id": 100273,
    "name": "SOUTHERN BL/WESTCHESTER AV",
    "description": "",
    "accessible": 1,
    "lat": 40.82437,
    "lng": -73.891944
  },
  {
    "id": 100276,
    "name": "STORY AV/COLGATE AV",
    "description": "",
    "accessible": 1,
    "lat": 40.82128,
    "lng": -73.879856
  },
  {
    "id": 100277,
    "name": "STORY AV/ELDER AV",
    "description": "",
    "accessible": 1,
    "lat": 40.821595,
    "lng": -73.877734
  },
  {
    "id": 100278,
    "name": "STORY AV/BOYNTON AV",
    "description": "",
    "accessible": 1,
    "lat": 40.821789,
    "lng": -73.876062
  },
  {
    "id": 100279,
    "name": "STORY AV/MORRISON AV",
    "description": "",
    "accessible": 1,
    "lat": 40.822192,
    "lng": -73.873098
  },
  {
    "id": 100280,
    "name": "STORY AV/METCALF AV",
    "description": "",
    "accessible": 1,
    "lat": 40.822549,
    "lng": -73.870532
  },
  {
    "id": 100281,
    "name": "STORY AV/NOBLE AV",
    "description": "",
    "accessible": 1,
    "lat": 40.82284,
    "lng": -73.868299
  },
  {
    "id": 100282,
    "name": "STORY AV/ROSEDALE AV",
    "description": "",
    "accessible": 1,
    "lat": 40.823091,
    "lng": -73.866506
  },
  {
    "id": 100284,
    "name": "STORY AV/THIERIOT AV",
    "description": "",
    "accessible": 1,
    "lat": 40.823673,
    "lng": -73.862104
  },
  {
    "id": 100294,
    "name": "BRUCKNER BL/E TREMONT AV",
    "description": "",
    "accessible": 1,
    "lat": 40.833162,
    "lng": -73.827592
  },
  {
    "id": 100295,
    "name": "BRUCKNER BL/LOGAN AV",
    "description": "",
    "accessible": 1,
    "lat": 40.834136,
    "lng": -73.825631
  },
  {
    "id": 100296,
    "name": "BRUCKNER BL/KEARNEY AV",
    "description": "",
    "accessible": 1,
    "lat": 40.83914,
    "lng": -73.824851
  },
  {
    "id": 100298,
    "name": "MACDONOUGH PL/COUNTRY CLUB RD",
    "description": "",
    "accessible": 1,
    "lat": 40.842501,
    "lng": -73.82511
  },
  {
    "id": 100299,
    "name": "BRUCKNER BL/MIDDLETOWN RD",
    "description": "",
    "accessible": 1,
    "lat": 40.845754,
    "lng": -73.825391
  },
  {
    "id": 100304,
    "name": "PELHAM PKWY/EASTCHESTER RD",
    "description": "",
    "accessible": 1,
    "lat": 40.857836,
    "lng": -73.844305
  },
  {
    "id": 100305,
    "name": "PELHAM PKWY/SEYMOUR AV",
    "description": "",
    "accessible": 1,
    "lat": 40.85806,
    "lng": -73.846615
  },
  {
    "id": 100306,
    "name": "PELHAM PKWY/THROOP AV",
    "description": "",
    "accessible": 1,
    "lat": 40.858026,
    "lng": -73.851524
  },
  {
    "id": 100317,
    "name": "PELHAM PKWY/EASTCHESTER RD",
    "description": "",
    "accessible": 1,
    "lat": 40.857271,
    "lng": -73.843935
  },
  {
    "id": 100318,
    "name": "PELHAM PKWY/STILLWELL AV",
    "description": "",
    "accessible": 1,
    "lat": 40.856475,
    "lng": -73.838814
  },
  {
    "id": 100319,
    "name": "PELHAM PKWY/ST PAUL AV",
    "description": "",
    "accessible": 1,
    "lat": 40.855472,
    "lng": -73.830704
  },
  {
    "id": 100322,
    "name": "BRUCKNER BL/WILLOW LA",
    "description": "",
    "accessible": 1,
    "lat": 40.848936,
    "lng": -73.828039
  },
  {
    "id": 100323,
    "name": "BRUCKNER BL/ROBERTS AV",
    "description": "",
    "accessible": 1,
    "lat": 40.846613,
    "lng": -73.826719
  },
  {
    "id": 100324,
    "name": "BRUCKNER BL/MIDDLETOWN RD",
    "description": "",
    "accessible": 1,
    "lat": 40.844904,
    "lng": -73.826192
  },
  {
    "id": 100325,
    "name": "BRUCKNER BL/JARVIS AV",
    "description": "",
    "accessible": 1,
    "lat": 40.843134,
    "lng": -73.826298
  },
  {
    "id": 100326,
    "name": "BRUCKNER BL/CODDINGTON AV",
    "description": "",
    "accessible": 1,
    "lat": 40.841438,
    "lng": -73.826168
  },
  {
    "id": 100328,
    "name": "BRUCKNER BL/BAISLEY AV",
    "description": "",
    "accessible": 1,
    "lat": 40.837136,
    "lng": -73.825919
  },
  {
    "id": 100329,
    "name": "BRUCKNER BL/CROSBY AV",
    "description": "",
    "accessible": 1,
    "lat": 40.834499,
    "lng": -73.826158
  },
  {
    "id": 100330,
    "name": "BRUCKNER BL/E TREMONT AV",
    "description": "",
    "accessible": 1,
    "lat": 40.832977,
    "lng": -73.829074
  },
  {
    "id": 100331,
    "name": "BRUCKNER BL/GIFFORD AV",
    "description": "",
    "accessible": 1,
    "lat": 40.831307,
    "lng": -73.831724
  },
  {
    "id": 100337,
    "name": "STORY AV/BOLTON AV",
    "description": "",
    "accessible": 1,
    "lat": 40.824164,
    "lng": -73.859675
  },
  {
    "id": 100339,
    "name": "STORY AV/TAYLOR AV",
    "description": "",
    "accessible": 1,
    "lat": 40.823533,
    "lng": -73.864002
  },
  {
    "id": 100340,
    "name": "STORY AV/ROSEDALE AV",
    "description": "",
    "accessible": 1,
    "lat": 40.823152,
    "lng": -73.866918
  },
  {
    "id": 100341,
    "name": "STORY AV/SOUNDVIEW AV",
    "description": "",
    "accessible": 1,
    "lat": 40.822974,
    "lng": -73.868066
  },
  {
    "id": 100342,
    "name": "STORY AV/FTELEY AV",
    "description": "",
    "accessible": 1,
    "lat": 40.822659,
    "lng": -73.870545
  },
  {
    "id": 100343,
    "name": "STORY AV/MORRISON AV",
    "description": "",
    "accessible": 1,
    "lat": 40.822262,
    "lng": -73.873406
  },
  {
    "id": 100344,
    "name": "STORY AV/BOYNTON AV",
    "description": "",
    "accessible": 1,
    "lat": 40.821762,
    "lng": -73.877189
  },
  {
    "id": 100347,
    "name": "STORY AV/BRONX RIVER AV",
    "description": "",
    "accessible": 1,
    "lat": 40.821109,
    "lng": -73.882065
  },
  {
    "id": 100363,
    "name": "E 161 ST/RIVER AV",
    "description": "",
    "accessible": 1,
    "lat": 40.827792,
    "lng": -73.926096
  },
  {
    "id": 100366,
    "name": "E 161 ST/CONCOURSE VILLAGE E",
    "description": "",
    "accessible": 1,
    "lat": 40.825343,
    "lng": -73.918099
  },
  {
    "id": 100368,
    "name": "E 161 ST/MELROSE AV",
    "description": "",
    "accessible": 1,
    "lat": 40.824041,
    "lng": -73.913643
  },
  {
    "id": 100369,
    "name": "ELTON AV/E 161 ST",
    "description": "",
    "accessible": 1,
    "lat": 40.82372,
    "lng": -73.911709
  },
  {
    "id": 100370,
    "name": "E 163 ST/3 AV",
    "description": "",
    "accessible": 1,
    "lat": 40.824064,
    "lng": -73.908925
  },
  {
    "id": 100373,
    "name": "E 163 ST/TINTON AV",
    "description": "",
    "accessible": 1,
    "lat": 40.822518,
    "lng": -73.902747
  },
  {
    "id": 100374,
    "name": "E 163 ST/PROSPECT AV",
    "description": "",
    "accessible": 1,
    "lat": 40.821893,
    "lng": -73.900189
  },
  {
    "id": 100376,
    "name": "E 163 ST/WESTCHESTER AV",
    "description": "",
    "accessible": 1,
    "lat": 40.820906,
    "lng": -73.898496
  },
  {
    "id": 100379,
    "name": "E 163 ST/FOX ST",
    "description": "",
    "accessible": 1,
    "lat": 40.82091,
    "lng": -73.893001
  },
  {
    "id": 100382,
    "name": "HUNTS POINT AV/SENECA AV",
    "description": "",
    "accessible": 1,
    "lat": 40.819273,
    "lng": -73.889683
  },
  {
    "id": 100384,
    "name": "HUNTS POINT AV/COSTER ST",
    "description": "",
    "accessible": 1,
    "lat": 40.81607,
    "lng": -73.887579
  },
  {
    "id": 100385,
    "name": "SPOFFORD AV/BRYANT AV",
    "description": "",
    "accessible": 1,
    "lat": 40.814586,
    "lng": -73.885118
  },
  {
    "id": 100415,
    "name": "HUNTS POINT AV/SPOFFORD AV",
    "description": "",
    "accessible": 1,
    "lat": 40.814653,
    "lng": -73.885892
  },
  {
    "id": 100416,
    "name": "HUNTS POINT AV/FAILE ST",
    "description": "",
    "accessible": 1,
    "lat": 40.815915,
    "lng": -73.887208
  },
  {
    "id": 100419,
    "name": "HUNTS POINT AV/SENECA AV",
    "description": "",
    "accessible": 1,
    "lat": 40.818922,
    "lng": -73.889324
  },
  {
    "id": 100424,
    "name": "E 163 ST/WESTCHESTER AV",
    "description": "",
    "accessible": 1,
    "lat": 40.820972,
    "lng": -73.898853
  },
  {
    "id": 100425,
    "name": "E 163 ST/PROSPECT AV",
    "description": "",
    "accessible": 1,
    "lat": 40.822313,
    "lng": -73.90107
  },
  {
    "id": 100428,
    "name": "E 163 ST/TRINITY AV",
    "description": "",
    "accessible": 1,
    "lat": 40.823544,
    "lng": -73.906235
  },
  {
    "id": 100431,
    "name": "E 161 ST/MELROSE AV",
    "description": "",
    "accessible": 1,
    "lat": 40.824404,
    "lng": -73.914216
  },
  {
    "id": 100449,
    "name": "BROADWAY/W 225 ST",
    "description": "",
    "accessible": 1,
    "lat": 40.8749,
    "lng": -73.909201
  },
  {
    "id": 100450,
    "name": "BROADWAY/W 228 ST",
    "description": "",
    "accessible": 1,
    "lat": 40.875698,
    "lng": -73.908194
  },
  {
    "id": 100451,
    "name": "BROADWAY/EXTERIOR ST",
    "description": "",
    "accessible": 1,
    "lat": 40.876732,
    "lng": -73.90643
  },
  {
    "id": 100459,
    "name": "HENRY HUDSON PKY E/W 246 ST",
    "description": "",
    "accessible": 1,
    "lat": 40.893961,
    "lng": -73.907908
  },
  {
    "id": 100460,
    "name": "HENRY HUDSON PKY E/W 250 ST",
    "description": "",
    "accessible": 1,
    "lat": 40.897735,
    "lng": -73.907574
  },
  {
    "id": 100461,
    "name": "HENRY HUDSON PKY E/W 252 ST",
    "description": "",
    "accessible": 1,
    "lat": 40.899288,
    "lng": -73.906659
  },
  {
    "id": 100462,
    "name": "RIVERDALE AV/W 254 ST",
    "description": "",
    "accessible": 1,
    "lat": 40.901963,
    "lng": -73.905859
  },
  {
    "id": 100463,
    "name": "RIVERDALE AV/W 256 ST",
    "description": "",
    "accessible": 1,
    "lat": 40.904309,
    "lng": -73.904842
  },
  {
    "id": 100464,
    "name": "RIVERDALE AV/W 259 ST",
    "description": "",
    "accessible": 1,
    "lat": 40.90714,
    "lng": -73.903907
  },
  {
    "id": 100465,
    "name": "RIVERDALE AV/W 260 ST",
    "description": "",
    "accessible": 1,
    "lat": 40.908712,
    "lng": -73.903544
  },
  {
    "id": 100466,
    "name": "RIVERDALE AV/W 261 ST",
    "description": "",
    "accessible": 1,
    "lat": 40.910398,
    "lng": -73.903027
  },
  {
    "id": 100469,
    "name": "RIVERDALE AV/W 261 ST",
    "description": "",
    "accessible": 1,
    "lat": 40.910225,
    "lng": -73.903269
  },
  {
    "id": 100470,
    "name": "RIVERDALE AV/W 260 ST",
    "description": "",
    "accessible": 1,
    "lat": 40.908491,
    "lng": -73.903786
  },
  {
    "id": 100471,
    "name": "RIVERDALE AV/W 259 ST",
    "description": "",
    "accessible": 1,
    "lat": 40.906534,
    "lng": -73.904313
  },
  {
    "id": 100472,
    "name": "RIVERDALE AV/W 256 ST",
    "description": "",
    "accessible": 1,
    "lat": 40.903917,
    "lng": -73.905204
  },
  {
    "id": 100473,
    "name": "RIVERDALE AV/W 254 ST",
    "description": "",
    "accessible": 1,
    "lat": 40.901894,
    "lng": -73.906064
  },
  {
    "id": 100474,
    "name": "HENRY HUDSON PKY W/W 252 ST",
    "description": "",
    "accessible": 1,
    "lat": 40.899008,
    "lng": -73.90778
  },
  {
    "id": 100475,
    "name": "HENRY HUDSON PKY W/W 249 ST",
    "description": "",
    "accessible": 1,
    "lat": 40.897,
    "lng": -73.908291
  },
  {
    "id": 100482,
    "name": "KINGSBRIDGE AV/W 230 ST",
    "description": "",
    "accessible": 1,
    "lat": 40.878459,
    "lng": -73.907984
  },
  {
    "id": 100483,
    "name": "W 230 ST/BROADWAY",
    "description": "",
    "accessible": 1,
    "lat": 40.876768,
    "lng": -73.906803
  },
  {
    "id": 100484,
    "name": "BROADWAY/W 228 ST",
    "description": "",
    "accessible": 1,
    "lat": 40.875752,
    "lng": -73.90825
  },
  {
    "id": 100485,
    "name": "BROADWAY/W 225 ST",
    "description": "",
    "accessible": 1,
    "lat": 40.87436,
    "lng": -73.91019
  },
  {
    "id": 100492,
    "name": "WILLIAMSBRIDGE RD/EASTCHESTER RD",
    "description": "",
    "accessible": 1,
    "lat": 40.844441,
    "lng": -73.846043
  },
  {
    "id": 100493,
    "name": "WILLIAMSBRIDGE RD/PIERCE AV",
    "description": "",
    "accessible": 1,
    "lat": 40.847385,
    "lng": -73.84917
  },
  {
    "id": 100494,
    "name": "WILLIAMSBRIDGE RD/MORRIS PK AV",
    "description": "",
    "accessible": 1,
    "lat": 40.850225,
    "lng": -73.851173
  },
  {
    "id": 100495,
    "name": "WILLIAMSBRIDGE RD/RHINELANDER AV",
    "description": "",
    "accessible": 1,
    "lat": 40.852588,
    "lng": -73.853022
  },
  {
    "id": 100496,
    "name": "WILLIAMSBRIDGE RD/NEILL AV",
    "description": "",
    "accessible": 1,
    "lat": 40.854531,
    "lng": -73.854532
  },
  {
    "id": 100499,
    "name": "WILLIAMSBRIDGE RD/ASTOR AV",
    "description": "",
    "accessible": 1,
    "lat": 40.859582,
    "lng": -73.857225
  },
  {
    "id": 100500,
    "name": "WILLIAMSBRIDGE RD/MACE AV",
    "description": "",
    "accessible": 1,
    "lat": 40.862923,
    "lng": -73.857891
  },
  {
    "id": 100501,
    "name": "WILLIAMSBRIDGE RD/ALLERTON AV",
    "description": "",
    "accessible": 1,
    "lat": 40.865362,
    "lng": -73.859418
  },
  {
    "id": 100502,
    "name": "WILLIAMSBRIDGE RD/BOSTON RD",
    "description": "",
    "accessible": 1,
    "lat": 40.867063,
    "lng": -73.860948
  },
  {
    "id": 100504,
    "name": "BRONXWOOD AV/ADEE AV",
    "description": "",
    "accessible": 1,
    "lat": 40.869467,
    "lng": -73.861311
  },
  {
    "id": 100505,
    "name": "BRONXWOOD AV/BURKE AV",
    "description": "",
    "accessible": 1,
    "lat": 40.87168,
    "lng": -73.861249
  },
  {
    "id": 100506,
    "name": "BRONXWOOD AV/DUNCAN ST",
    "description": "",
    "accessible": 1,
    "lat": 40.873431,
    "lng": -73.861184
  },
  {
    "id": 100508,
    "name": "BRONXWOOD AV/TILDEN ST",
    "description": "",
    "accessible": 1,
    "lat": 40.876747,
    "lng": -73.859683
  },
  {
    "id": 100510,
    "name": "BRONXWOOD AV/E 216 ST",
    "description": "",
    "accessible": 1,
    "lat": 40.879904,
    "lng": -73.857941
  },
  {
    "id": 100511,
    "name": "BRONXWOOD AV/E 218 ST",
    "description": "",
    "accessible": 1,
    "lat": 40.881303,
    "lng": -73.857168
  },
  {
    "id": 100513,
    "name": "BRONXWOOD AV/E 222 ST",
    "description": "",
    "accessible": 1,
    "lat": 40.88415,
    "lng": -73.855599
  },
  {
    "id": 100515,
    "name": "E 226 ST/BRONXWOOD AV",
    "description": "",
    "accessible": 1,
    "lat": 40.886863,
    "lng": -73.854718
  },
  {
    "id": 100517,
    "name": "E 226 ST/WHITE PLAINS RD",
    "description": "",
    "accessible": 1,
    "lat": 40.888497,
    "lng": -73.859879
  },
  {
    "id": 100522,
    "name": "BRONXWOOD AV/E 222 ST",
    "description": "",
    "accessible": 1,
    "lat": 40.883561,
    "lng": -73.85619
  },
  {
    "id": 100524,
    "name": "BRONXWOOD AV/E 218 ST",
    "description": "",
    "accessible": 1,
    "lat": 40.880774,
    "lng": -73.857729
  },
  {
    "id": 100525,
    "name": "BRONXWOOD AV/E 216 ST",
    "description": "",
    "accessible": 1,
    "lat": 40.87937,
    "lng": -73.858503
  },
  {
    "id": 100527,
    "name": "BRONXWOOD AV/TILDEN ST",
    "description": "",
    "accessible": 1,
    "lat": 40.876534,
    "lng": -73.860078
  },
  {
    "id": 100528,
    "name": "BRONXWOOD AV/E GUN HILL RD",
    "description": "",
    "accessible": 1,
    "lat": 40.875661,
    "lng": -73.860554
  },
  {
    "id": 100529,
    "name": "BRONXWOOD AV/BARTHOLDI ST",
    "description": "",
    "accessible": 1,
    "lat": 40.873343,
    "lng": -73.861452
  },
  {
    "id": 100530,
    "name": "BRONXWOOD AV/BURKE AV",
    "description": "",
    "accessible": 1,
    "lat": 40.870985,
    "lng": -73.861511
  },
  {
    "id": 100531,
    "name": "BRONXWOOD AV/ADEE AV",
    "description": "",
    "accessible": 1,
    "lat": 40.869254,
    "lng": -73.861565
  },
  {
    "id": 100533,
    "name": "WILLIAMSBRIDGE RD/BOSTON RD",
    "description": "",
    "accessible": 1,
    "lat": 40.86678,
    "lng": -73.860948
  },
  {
    "id": 100534,
    "name": "WILLIAMSBRIDGE RD/ALLERTON AV",
    "description": "",
    "accessible": 1,
    "lat": 40.865653,
    "lng": -73.859938
  },
  {
    "id": 100535,
    "name": "WILLIAMSBRIDGE RD/MACE AV",
    "description": "",
    "accessible": 1,
    "lat": 40.862717,
    "lng": -73.858017
  },
  {
    "id": 100536,
    "name": "WILLIAMSBRIDGE RD/ASTOR AV",
    "description": "",
    "accessible": 1,
    "lat": 40.85937,
    "lng": -73.857414
  },
  {
    "id": 100537,
    "name": "WILLIAMSBRIDGE RD/PELHAM PKY N",
    "description": "",
    "accessible": 1,
    "lat": 40.85767,
    "lng": -73.856517
  },
  {
    "id": 100538,
    "name": "WILLIAMSBRIDGE RD/PELHAM PY S",
    "description": "",
    "accessible": 1,
    "lat": 40.856632,
    "lng": -73.856086
  },
  {
    "id": 100539,
    "name": "WILLIAMSBRIDGE RD/NEILL AV",
    "description": "",
    "accessible": 1,
    "lat": 40.853858,
    "lng": -73.854288
  },
  {
    "id": 100541,
    "name": "WILLIAMSBRIDGE RD/MORRIS PK AV",
    "description": "",
    "accessible": 1,
    "lat": 40.850349,
    "lng": -73.851498
  },
  {
    "id": 100542,
    "name": "WILLIAMSBRIDGE RD/PIERCE AV",
    "description": "",
    "accessible": 1,
    "lat": 40.84691,
    "lng": -73.849059
  },
  {
    "id": 100543,
    "name": "WILLIAMSBRIDGE RD/SILVER ST",
    "description": "",
    "accessible": 1,
    "lat": 40.844076,
    "lng": -73.845989
  },
  {
    "id": 100558,
    "name": "E 180 ST/BOSTON RD",
    "description": "",
    "accessible": 1,
    "lat": 40.842681,
    "lng": -73.878252
  },
  {
    "id": 100559,
    "name": "E 180 ST/DALY AV",
    "description": "",
    "accessible": 1,
    "lat": 40.844777,
    "lng": -73.881784
  },
  {
    "id": 100560,
    "name": "E 180 ST/CROTONA PY",
    "description": "",
    "accessible": 1,
    "lat": 40.845819,
    "lng": -73.883961
  },
  {
    "id": 100561,
    "name": "SOUTHERN BL/BRONX PK S",
    "description": "",
    "accessible": 1,
    "lat": 40.847688,
    "lng": -73.883127
  },
  {
    "id": 100562,
    "name": "SOUTHERN BL/E 183 ST",
    "description": "",
    "accessible": 1,
    "lat": 40.851175,
    "lng": -73.88217
  },
  {
    "id": 100563,
    "name": "SOUTHERN BL/E 187 ST",
    "description": "",
    "accessible": 1,
    "lat": 40.853214,
    "lng": -73.881577
  },
  {
    "id": 100564,
    "name": "SOUTHERN BL/E 189 ST",
    "description": "",
    "accessible": 1,
    "lat": 40.856408,
    "lng": -73.880682
  },
  {
    "id": 100565,
    "name": "E FORDHAM RD/CAMBERLENG AV",
    "description": "",
    "accessible": 1,
    "lat": 40.858134,
    "lng": -73.882985
  },
  {
    "id": 100567,
    "name": "E FORDHAM RD/BATHGATE AV",
    "description": "",
    "accessible": 1,
    "lat": 40.859851,
    "lng": -73.887646
  },
  {
    "id": 100571,
    "name": "E KINGSBRIDGE RD/E 192 ST",
    "description": "",
    "accessible": 1,
    "lat": 40.863823,
    "lng": -73.894194
  },
  {
    "id": 100573,
    "name": "E KINGSBRIDGE RD/MORRIS AV",
    "description": "",
    "accessible": 1,
    "lat": 40.867294,
    "lng": -73.896876
  },
  {
    "id": 100576,
    "name": "W KINGSBRIDGE RD/KINGSBRIDGE TER",
    "description": "",
    "accessible": 1,
    "lat": 40.870345,
    "lng": -73.904246
  },
  {
    "id": 100579,
    "name": "W 225 ST/BROADWAY",
    "description": "",
    "accessible": 1,
    "lat": 40.874486,
    "lng": -73.909403
  },
  {
    "id": 100582,
    "name": "BROADWAY/W 231 ST",
    "description": "",
    "accessible": 1,
    "lat": 40.878788,
    "lng": -73.904848
  },
  {
    "id": 100583,
    "name": "BROADWAY/W 234 ST",
    "description": "",
    "accessible": 1,
    "lat": 40.881534,
    "lng": -73.90279
  },
  {
    "id": 100585,
    "name": "BROADWAY/W 238 ST",
    "description": "",
    "accessible": 1,
    "lat": 40.884966,
    "lng": -73.900634
  },
  {
    "id": 100586,
    "name": "BROADWAY/VAN CORTLANDT PK S",
    "description": "",
    "accessible": 1,
    "lat": 40.886376,
    "lng": -73.899709
  },
  {
    "id": 100587,
    "name": "BROADWAY/W 242 ST",
    "description": "",
    "accessible": 1,
    "lat": 40.889761,
    "lng": -73.897936
  },
  {
    "id": 100588,
    "name": "BROADWAY/W 246 ST",
    "description": "",
    "accessible": 1,
    "lat": 40.892052,
    "lng": -73.896966
  },
  {
    "id": 100589,
    "name": "BROADWAY/W 251 ST",
    "description": "",
    "accessible": 1,
    "lat": 40.895684,
    "lng": -73.896637
  },
  {
    "id": 100590,
    "name": "BROADWAY/LAKE VIEW PL",
    "description": "",
    "accessible": 1,
    "lat": 40.898497,
    "lng": -73.896946
  },
  {
    "id": 100591,
    "name": "BROADWAY/W 254 ST",
    "description": "",
    "accessible": 1,
    "lat": 40.901357,
    "lng": -73.89667
  },
  {
    "id": 100592,
    "name": "BROADWAY/MOSHOLU AV",
    "description": "",
    "accessible": 1,
    "lat": 40.904201,
    "lng": -73.896336
  },
  {
    "id": 100594,
    "name": "BROADWAY/W 260 ST",
    "description": "",
    "accessible": 1,
    "lat": 40.907417,
    "lng": -73.896407
  },
  {
    "id": 100595,
    "name": "BROADWAY/W 262 ST",
    "description": "",
    "accessible": 1,
    "lat": 40.910081,
    "lng": -73.896495
  },
  {
    "id": 100606,
    "name": "RIVERDALE AV/W 263 ST",
    "description": "",
    "accessible": 1,
    "lat": 40.912377,
    "lng": -73.902533
  },
  {
    "id": 100607,
    "name": "RIVERDALE AV/W 263 ST",
    "description": "",
    "accessible": 1,
    "lat": 40.912363,
    "lng": -73.902699
  },
  {
    "id": 100608,
    "name": "BROADWAY/W 262 ST",
    "description": "",
    "accessible": 1,
    "lat": 40.910104,
    "lng": -73.89673
  },
  {
    "id": 100609,
    "name": "BROADWAY/W 260 ST",
    "description": "",
    "accessible": 1,
    "lat": 40.907175,
    "lng": -73.896664
  },
  {
    "id": 100610,
    "name": "BROADWAY/MOSHOLU AV",
    "description": "",
    "accessible": 1,
    "lat": 40.904244,
    "lng": -73.896539
  },
  {
    "id": 100612,
    "name": "BROADWAY/W 254 ST",
    "description": "",
    "accessible": 1,
    "lat": 40.901169,
    "lng": -73.896915
  },
  {
    "id": 100613,
    "name": "BROADWAY/LAKE VIEW PL",
    "description": "",
    "accessible": 1,
    "lat": 40.898665,
    "lng": -73.897242
  },
  {
    "id": 100614,
    "name": "BROADWAY/W 251 ST",
    "description": "",
    "accessible": 1,
    "lat": 40.895876,
    "lng": -73.896856
  },
  {
    "id": 100615,
    "name": "BROADWAY/W 246 ST",
    "description": "",
    "accessible": 1,
    "lat": 40.892236,
    "lng": -73.897158
  },
  {
    "id": 100616,
    "name": "BROADWAY/W 242 ST",
    "description": "",
    "accessible": 1,
    "lat": 40.890027,
    "lng": -73.898243
  },
  {
    "id": 100617,
    "name": "BROADWAY/W 240 ST",
    "description": "",
    "accessible": 1,
    "lat": 40.886686,
    "lng": -73.899919
  },
  {
    "id": 100618,
    "name": "BROADWAY/W 238 ST",
    "description": "",
    "accessible": 1,
    "lat": 40.885241,
    "lng": -73.900666
  },
  {
    "id": 100620,
    "name": "BROADWAY/W 234 ST",
    "description": "",
    "accessible": 1,
    "lat": 40.881798,
    "lng": -73.902826
  },
  {
    "id": 100621,
    "name": "BROADWAY/W 231 ST",
    "description": "",
    "accessible": 1,
    "lat": 40.87906,
    "lng": -73.904768
  },
  {
    "id": 100624,
    "name": "W 225 ST/BROADWAY",
    "description": "",
    "accessible": 1,
    "lat": 40.874274,
    "lng": -73.909375
  },
  {
    "id": 100626,
    "name": "W KINGSBRIDGE RD/HEATH AV",
    "description": "",
    "accessible": 1,
    "lat": 40.872591,
    "lng": -73.904832
  },
  {
    "id": 100627,
    "name": "W KINGSBRIDGE RD/KINGSBRIDGE TER",
    "description": "",
    "accessible": 1,
    "lat": 40.87042,
    "lng": -73.904578
  },
  {
    "id": 100629,
    "name": "W KINGSBRIDGE RD/UNIVERSITY AV",
    "description": "",
    "accessible": 1,
    "lat": 40.868262,
    "lng": -73.901233
  },
  {
    "id": 100630,
    "name": "W KINGSBRIDGE RD/JEROME AV",
    "description": "",
    "accessible": 1,
    "lat": 40.86743,
    "lng": -73.89767
  },
  {
    "id": 100631,
    "name": "E KINGSBRIDGE RD/GRAND CONCOURSE",
    "description": "",
    "accessible": 1,
    "lat": 40.86585,
    "lng": -73.894274
  },
  {
    "id": 100632,
    "name": "E KINGSBRIDGE RD/E192 ST",
    "description": "",
    "accessible": 1,
    "lat": 40.863722,
    "lng": -73.894364
  },
  {
    "id": 100633,
    "name": "E KINGSBRIDGE RD/E FORDHAM RD",
    "description": "",
    "accessible": 1,
    "lat": 40.862089,
    "lng": -73.893936
  },
  {
    "id": 100636,
    "name": "E FORDHAM RD/BATHGATE AV",
    "description": "",
    "accessible": 1,
    "lat": 40.859601,
    "lng": -73.887654
  },
  {
    "id": 100640,
    "name": "SOUTHERN BL/E FORDHAM RD",
    "description": "",
    "accessible": 1,
    "lat": 40.856252,
    "lng": -73.880972
  },
  {
    "id": 100641,
    "name": "SOUTHERN BL/E 187 ST",
    "description": "",
    "accessible": 1,
    "lat": 40.853173,
    "lng": -73.881852
  },
  {
    "id": 100642,
    "name": "SOUTHERN BL/E 183 ST",
    "description": "",
    "accessible": 1,
    "lat": 40.850918,
    "lng": -73.882488
  },
  {
    "id": 100643,
    "name": "SOUTHERN BL/E 182 ST",
    "description": "",
    "accessible": 1,
    "lat": 40.847976,
    "lng": -73.883339
  },
  {
    "id": 100644,
    "name": "E 180 ST/MOHEGAN AV",
    "description": "",
    "accessible": 1,
    "lat": 40.845561,
    "lng": -73.883747
  },
  {
    "id": 100645,
    "name": "E 180 ST/DALY AV",
    "description": "",
    "accessible": 1,
    "lat": 40.844403,
    "lng": -73.881557
  },
  {
    "id": 100646,
    "name": "BOSTON RD/E 180 ST",
    "description": "",
    "accessible": 1,
    "lat": 40.842561,
    "lng": -73.878332
  },
  {
    "id": 100647,
    "name": "BOSTON RD/E 178 ST",
    "description": "",
    "accessible": 1,
    "lat": 40.840915,
    "lng": -73.879477
  },
  {
    "id": 100652,
    "name": "BAINBRIDGE AV/RESERVOIR OVAL E",
    "description": "",
    "accessible": 1,
    "lat": 40.877311,
    "lng": -73.879677
  },
  {
    "id": 100654,
    "name": "E GUN HILL RD/BAINBRIDGE AV",
    "description": "",
    "accessible": 1,
    "lat": 40.881347,
    "lng": -73.878833
  },
  {
    "id": 100655,
    "name": "E GUN HILL RD/DE KALB AV",
    "description": "",
    "accessible": 1,
    "lat": 40.882485,
    "lng": -73.8807
  },
  {
    "id": 100657,
    "name": "JEROME AV/E 205 ST",
    "description": "",
    "accessible": 1,
    "lat": 40.876457,
    "lng": -73.888096
  },
  {
    "id": 100675,
    "name": "KAPPOCK ST/JOHNSON AV",
    "description": "",
    "accessible": 1,
    "lat": 40.877566,
    "lng": -73.917738
  },
  {
    "id": 100676,
    "name": "KAPPOCK ST/KNOLLS CRES",
    "description": "",
    "accessible": 1,
    "lat": 40.879473,
    "lng": -73.916643
  },
  {
    "id": 100677,
    "name": "HENRY HUDSON PKY E/W 227 ST",
    "description": "",
    "accessible": 1,
    "lat": 40.88118,
    "lng": -73.917093
  },
  {
    "id": 100678,
    "name": "HENRY HUDSON PKY E/W 232 ST",
    "description": "",
    "accessible": 1,
    "lat": 40.884434,
    "lng": -73.914569
  },
  {
    "id": 100679,
    "name": "HENRY HUDSON PKY E/W 235 ST",
    "description": "",
    "accessible": 1,
    "lat": 40.886017,
    "lng": -73.912559
  },
  {
    "id": 100680,
    "name": "HENRY HUDSON PKY E/W 238 ST",
    "description": "",
    "accessible": 1,
    "lat": 40.888566,
    "lng": -73.909655
  },
  {
    "id": 100700,
    "name": "HENRY HUDSON PKY W/W 239 ST",
    "description": "",
    "accessible": 1,
    "lat": 40.889606,
    "lng": -73.90901
  },
  {
    "id": 100701,
    "name": "HENRY HUDSON PKY W/W 237 ST",
    "description": "",
    "accessible": 1,
    "lat": 40.887849,
    "lng": -73.91192
  },
  {
    "id": 100702,
    "name": "HENRY HUDSON PKY W/W 236 ST",
    "description": "",
    "accessible": 1,
    "lat": 40.886798,
    "lng": -73.912533
  },
  {
    "id": 100703,
    "name": "HENRY HUDSON PKY W/W 232 ST",
    "description": "",
    "accessible": 1,
    "lat": 40.884346,
    "lng": -73.915205
  },
  {
    "id": 100704,
    "name": "HENRY HUDSON PKY W/W 227 ST",
    "description": "",
    "accessible": 1,
    "lat": 40.88157,
    "lng": -73.917346
  },
  {
    "id": 100705,
    "name": "HENRY HUDSON PKY W/INDEPENDENCE AV",
    "description": "",
    "accessible": 1,
    "lat": 40.880804,
    "lng": -73.91895
  },
  {
    "id": 100706,
    "name": "KAPPOCK ST/KNOLLS CRES",
    "description": "",
    "accessible": 1,
    "lat": 40.87909,
    "lng": -73.916789
  },
  {
    "id": 100707,
    "name": "KAPPOCK ST/JOHNSON AV",
    "description": "",
    "accessible": 1,
    "lat": 40.877396,
    "lng": -73.918013
  },
  {
    "id": 100723,
    "name": "W 205 ST/PAUL AV",
    "description": "",
    "accessible": 1,
    "lat": 40.876999,
    "lng": -73.889855
  },
  {
    "id": 100726,
    "name": "JEROME AV/E 205 ST",
    "description": "",
    "accessible": 1,
    "lat": 40.875794,
    "lng": -73.888278
  },
  {
    "id": 100727,
    "name": "JEROME AV/E MOSHOLU PY N",
    "description": "",
    "accessible": 1,
    "lat": 40.880473,
    "lng": -73.88375
  },
  {
    "id": 100729,
    "name": "BAINBRIDGE AV/E GUN HILL RD",
    "description": "",
    "accessible": 1,
    "lat": 40.880732,
    "lng": -73.878634
  },
  {
    "id": 100730,
    "name": "BAINBRIDGE AV/E 210 ST",
    "description": "",
    "accessible": 1,
    "lat": 40.879332,
    "lng": -73.879113
  },
  {
    "id": 100731,
    "name": "BAINBRIDGE AV/VAN CORTLANDT AV E",
    "description": "",
    "accessible": 1,
    "lat": 40.87709,
    "lng": -73.879774
  },
  {
    "id": 100737,
    "name": "OGDEN AV/UNIVERSITY AV",
    "description": "",
    "accessible": 1,
    "lat": 40.843611,
    "lng": -73.923774
  },
  {
    "id": 100740,
    "name": "OGDEN AV/W 169 ST",
    "description": "",
    "accessible": 1,
    "lat": 40.840238,
    "lng": -73.925301
  },
  {
    "id": 100742,
    "name": "WOODYCREST AV/W 168 ST",
    "description": "",
    "accessible": 1,
    "lat": 40.838422,
    "lng": -73.923294
  },
  {
    "id": 100743,
    "name": "SHAKESPEARE AV/W 169 ST",
    "description": "",
    "accessible": 1,
    "lat": 40.839536,
    "lng": -73.922454
  },
  {
    "id": 100744,
    "name": "W 170 ST/EDWARD L GRANT HY",
    "description": "",
    "accessible": 1,
    "lat": 40.840265,
    "lng": -73.921646
  },
  {
    "id": 100745,
    "name": "W 170 ST/JEROME AV",
    "description": "",
    "accessible": 1,
    "lat": 40.84021,
    "lng": -73.917817
  },
  {
    "id": 100749,
    "name": "E 170 ST/CLAY AV",
    "description": "",
    "accessible": 1,
    "lat": 40.837093,
    "lng": -73.908229
  },
  {
    "id": 100750,
    "name": "CLAY AV/E 171 ST",
    "description": "",
    "accessible": 1,
    "lat": 40.838632,
    "lng": -73.906391
  },
  {
    "id": 100751,
    "name": "CLAREMONT PKY/WEBSTER AV",
    "description": "",
    "accessible": 1,
    "lat": 40.839509,
    "lng": -73.904973
  },
  {
    "id": 100752,
    "name": "CLAREMONT PKY/WASHINGTON AV",
    "description": "",
    "accessible": 1,
    "lat": 40.838615,
    "lng": -73.902322
  },
  {
    "id": 100753,
    "name": "CLAREMONT PKY/3 AV",
    "description": "",
    "accessible": 1,
    "lat": 40.83809,
    "lng": -73.901107
  },
  {
    "id": 100754,
    "name": "CLAREMONT PKY/CROTONA AV",
    "description": "",
    "accessible": 1,
    "lat": 40.836376,
    "lng": -73.898033
  },
  {
    "id": 100762,
    "name": "CLAREMONT PKY/CROTONA PARK E",
    "description": "",
    "accessible": 1,
    "lat": 40.835389,
    "lng": -73.895119
  },
  {
    "id": 100763,
    "name": "CLAREMONT PKY/CROTONA AV",
    "description": "",
    "accessible": 1,
    "lat": 40.83654,
    "lng": -73.897614
  },
  {
    "id": 100764,
    "name": "CLAREMONT PKY/3 AV",
    "description": "",
    "accessible": 1,
    "lat": 40.83827,
    "lng": -73.901294
  },
  {
    "id": 100765,
    "name": "CLAREMONT PKY/WASHINGTON AV",
    "description": "",
    "accessible": 1,
    "lat": 40.839093,
    "lng": -73.90299
  },
  {
    "id": 100766,
    "name": "CLAREMONT PKY/WEBSTER AV",
    "description": "",
    "accessible": 1,
    "lat": 40.839795,
    "lng": -73.905146
  },
  {
    "id": 100768,
    "name": "E 170 ST/TELLER AV",
    "description": "",
    "accessible": 1,
    "lat": 40.836992,
    "lng": -73.909096
  },
  {
    "id": 100769,
    "name": "E 170 ST/COLLEGE AV",
    "description": "",
    "accessible": 1,
    "lat": 40.837677,
    "lng": -73.910947
  },
  {
    "id": 100772,
    "name": "E 170 ST/JEROME AV",
    "description": "",
    "accessible": 1,
    "lat": 40.840227,
    "lng": -73.917484
  },
  {
    "id": 100775,
    "name": "SHAKESPEARE AV/W 169 ST",
    "description": "",
    "accessible": 1,
    "lat": 40.839023,
    "lng": -73.922795
  },
  {
    "id": 100796,
    "name": "W FORDHAM RD/UNIVERSITY AV",
    "description": "",
    "accessible": 1,
    "lat": 40.862703,
    "lng": -73.904256
  },
  {
    "id": 100797,
    "name": "E FORDHAM RD/WALTON AV",
    "description": "",
    "accessible": 1,
    "lat": 40.862451,
    "lng": -73.900497
  },
  {
    "id": 100798,
    "name": "E FORDHAM RD/GRAND CONCOURSE",
    "description": "",
    "accessible": 1,
    "lat": 40.862394,
    "lng": -73.897565
  },
  {
    "id": 100799,
    "name": "E FORDHAM RD/VALENTINE AV",
    "description": "",
    "accessible": 1,
    "lat": 40.862236,
    "lng": -73.89601
  },
  {
    "id": 100807,
    "name": "E FORDHAM RD/SOUTHERN BL",
    "description": "",
    "accessible": 1,
    "lat": 40.856465,
    "lng": -73.880146
  },
  {
    "id": 100808,
    "name": "PELHAM PKWY/WHITE PLAINS RD",
    "description": "",
    "accessible": 1,
    "lat": 40.856715,
    "lng": -73.867834
  },
  {
    "id": 100809,
    "name": "PELHAM PKWY/MULINER AV",
    "description": "",
    "accessible": 1,
    "lat": 40.856878,
    "lng": -73.861761
  },
  {
    "id": 100811,
    "name": "PELHAM PKWY/WILLIAMSBRIDGE RD",
    "description": "",
    "accessible": 1,
    "lat": 40.857026,
    "lng": -73.85623
  },
  {
    "id": 100820,
    "name": "CITY ISLAND AV/KILROE ST",
    "description": "",
    "accessible": 1,
    "lat": 40.854659,
    "lng": -73.791003
  },
  {
    "id": 100822,
    "name": "CITY ISLAND AV/BEACH ST",
    "description": "",
    "accessible": 1,
    "lat": 40.851731,
    "lng": -73.78899
  },
  {
    "id": 100823,
    "name": "CITY ISLAND AV/DITMARS ST",
    "description": "",
    "accessible": 1,
    "lat": 40.849464,
    "lng": -73.787397
  },
  {
    "id": 100824,
    "name": "CITY ISLAND AV/FORDHAM ST",
    "description": "",
    "accessible": 1,
    "lat": 40.846915,
    "lng": -73.786479
  },
  {
    "id": 100826,
    "name": "CITY ISLAND AV/WINTERS ST",
    "description": "",
    "accessible": 1,
    "lat": 40.843817,
    "lng": -73.785314
  },
  {
    "id": 100827,
    "name": "CITY ISLAND AV/PELL PL",
    "description": "",
    "accessible": 1,
    "lat": 40.842177,
    "lng": -73.784701
  },
  {
    "id": 100828,
    "name": "CITY ISLAND AV/PILOT ST",
    "description": "",
    "accessible": 1,
    "lat": 40.841279,
    "lng": -73.784368
  },
  {
    "id": 100829,
    "name": "CITY ISLAND AV/ROCHELLE ST",
    "description": "",
    "accessible": 1,
    "lat": 40.838969,
    "lng": -73.783486
  },
  {
    "id": 100840,
    "name": "PELHAM PKWY/WILLIAMSBRIDGE RD",
    "description": "",
    "accessible": 1,
    "lat": 40.857548,
    "lng": -73.856642
  },
  {
    "id": 100842,
    "name": "PELHAM PKWY/WHITE PLAINS RD",
    "description": "",
    "accessible": 1,
    "lat": 40.857292,
    "lng": -73.867321
  },
  {
    "id": 100843,
    "name": "E FORDHAM RD/SOUTHERN BL",
    "description": "",
    "accessible": 1,
    "lat": 40.85731,
    "lng": -73.880492
  },
  {
    "id": 100849,
    "name": "E FORDHAM RD/VALENTINE AV",
    "description": "",
    "accessible": 1,
    "lat": 40.862346,
    "lng": -73.896016
  },
  {
    "id": 100850,
    "name": "E FORDHAM RD/E 190 ST",
    "description": "",
    "accessible": 1,
    "lat": 40.862426,
    "lng": -73.897854
  },
  {
    "id": 100851,
    "name": "E FORDHAM RD/JEROME AV",
    "description": "",
    "accessible": 1,
    "lat": 40.862689,
    "lng": -73.900802
  },
  {
    "id": 100854,
    "name": "W FORDHAM RD/SEDGWICK AV",
    "description": "",
    "accessible": 1,
    "lat": 40.862782,
    "lng": -73.908655
  },
  {
    "id": 100860,
    "name": "CITY ISLAND AV/ROCHELLE ST",
    "description": "",
    "accessible": 1,
    "lat": 40.83906,
    "lng": -73.783366
  },
  {
    "id": 100861,
    "name": "CITY ISLAND AV/PILOT ST",
    "description": "",
    "accessible": 1,
    "lat": 40.841152,
    "lng": -73.784108
  },
  {
    "id": 100862,
    "name": "CITY ISLAND AV/PELL PL",
    "description": "",
    "accessible": 1,
    "lat": 40.842847,
    "lng": -73.784746
  },
  {
    "id": 100863,
    "name": "CITY ISLAND AV/WINTERS ST",
    "description": "",
    "accessible": 1,
    "lat": 40.84408,
    "lng": -73.785197
  },
  {
    "id": 100865,
    "name": "CITY ISLAND AV/FORDHAM ST",
    "description": "",
    "accessible": 1,
    "lat": 40.84753,
    "lng": -73.786495
  },
  {
    "id": 100866,
    "name": "CITY ISLAND AV/DITMARS ST",
    "description": "",
    "accessible": 1,
    "lat": 40.84964,
    "lng": -73.787283
  },
  {
    "id": 100867,
    "name": "CITY ISLAND AV/BEACH ST",
    "description": "",
    "accessible": 1,
    "lat": 40.852272,
    "lng": -73.78914
  },
  {
    "id": 100869,
    "name": "CITY ISLAND AV/KILROE ST",
    "description": "",
    "accessible": 1,
    "lat": 40.854516,
    "lng": -73.790806
  },
  {
    "id": 100870,
    "name": "CITY ISLAND RD/CITY ISLAND CIR",
    "description": "",
    "accessible": 1,
    "lat": 40.860528,
    "lng": -73.801335
  },
  {
    "id": 100876,
    "name": "ELTON AV/E 161 ST",
    "description": "",
    "accessible": 1,
    "lat": 40.823758,
    "lng": -73.911987
  },
  {
    "id": 100883,
    "name": "JEROME AV/W 161 ST",
    "description": "",
    "accessible": 1,
    "lat": 40.829981,
    "lng": -73.930187
  },
  {
    "id": 100884,
    "name": "OGDEN AV/W 162 ST",
    "description": "",
    "accessible": 1,
    "lat": 40.831913,
    "lng": -73.929871
  },
  {
    "id": 100893,
    "name": "OGDEN AV/W 164 ST",
    "description": "",
    "accessible": 1,
    "lat": 40.833175,
    "lng": -73.929151
  },
  {
    "id": 100895,
    "name": "OGDEN AV/W 166 ST",
    "description": "",
    "accessible": 1,
    "lat": 40.835862,
    "lng": -73.927637
  },
  {
    "id": 100897,
    "name": "OGDEN AV/W 168 ST",
    "description": "",
    "accessible": 1,
    "lat": 40.838786,
    "lng": -73.925935
  },
  {
    "id": 100922,
    "name": "OGDEN AV/W 168 ST",
    "description": "",
    "accessible": 1,
    "lat": 40.838216,
    "lng": -73.926456
  },
  {
    "id": 100924,
    "name": "OGDEN AV/W 166 ST",
    "description": "",
    "accessible": 1,
    "lat": 40.835332,
    "lng": -73.92814
  },
  {
    "id": 100926,
    "name": "OGDEN AV/W 164 ST",
    "description": "",
    "accessible": 1,
    "lat": 40.832641,
    "lng": -73.929628
  },
  {
    "id": 100927,
    "name": "OGDEN AV/W 162 ST",
    "description": "",
    "accessible": 1,
    "lat": 40.831732,
    "lng": -73.930142
  },
  {
    "id": 100946,
    "name": "WESTCHESTER AV/MIDDLETOWN RD",
    "description": "",
    "accessible": 1,
    "lat": 40.843758,
    "lng": -73.836358
  },
  {
    "id": 100947,
    "name": "WESTCHESTER AV/ROBERTS AV",
    "description": "",
    "accessible": 1,
    "lat": 40.84543,
    "lng": -73.83423
  },
  {
    "id": 100948,
    "name": "WESTCHESTER AV/CROSBY AV",
    "description": "",
    "accessible": 1,
    "lat": 40.846829,
    "lng": -73.832468
  },
  {
    "id": 100949,
    "name": "WESTCHESTER AV/MAHAN AV",
    "description": "",
    "accessible": 1,
    "lat": 40.849025,
    "lng": -73.830544
  },
  {
    "id": 100950,
    "name": "WESTCHESTER AV/WILKINSON AV",
    "description": "",
    "accessible": 1,
    "lat": 40.851708,
    "lng": -73.829539
  },
  {
    "id": 100956,
    "name": "COUNTRY CLUB RD/KEARNEY AV",
    "description": "",
    "accessible": 1,
    "lat": 40.842489,
    "lng": -73.824756
  },
  {
    "id": 100960,
    "name": "CAMPBELL DR/STADIUM AV",
    "description": "",
    "accessible": 1,
    "lat": 40.83791,
    "lng": -73.818838
  },
  {
    "id": 100961,
    "name": "CAMPBELL DR/AGAR PL",
    "description": "",
    "accessible": 1,
    "lat": 40.839129,
    "lng": -73.817273
  },
  {
    "id": 100962,
    "name": "CAMPBELL DR/COUNTRY CLUB RD",
    "description": "",
    "accessible": 1,
    "lat": 40.841062,
    "lng": -73.817857
  },
  {
    "id": 100965,
    "name": "RADIO DR/LUCERNE ST",
    "description": "",
    "accessible": 1,
    "lat": 40.843131,
    "lng": -73.817143
  },
  {
    "id": 100966,
    "name": "RADIO DR/GRISWOLD AV",
    "description": "",
    "accessible": 1,
    "lat": 40.843952,
    "lng": -73.819378
  },
  {
    "id": 100967,
    "name": "RESEARCH AV/AMPERE AV",
    "description": "",
    "accessible": 1,
    "lat": 40.846067,
    "lng": -73.819252
  },
  {
    "id": 100977,
    "name": "COUNTRY CLUB RD/MC DONOUGH PL",
    "description": "",
    "accessible": 1,
    "lat": 40.842745,
    "lng": -73.825073
  },
  {
    "id": 100981,
    "name": "WESTCHESTER AV/WILKINSON AV",
    "description": "",
    "accessible": 1,
    "lat": 40.851299,
    "lng": -73.829945
  },
  {
    "id": 100982,
    "name": "WESTCHESTER AV/ST THERESA AV",
    "description": "",
    "accessible": 1,
    "lat": 40.84933,
    "lng": -73.830543
  },
  {
    "id": 100983,
    "name": "WESTCHESTER AV/BUHRE AV",
    "description": "",
    "accessible": 1,
    "lat": 40.847094,
    "lng": -73.832252
  },
  {
    "id": 100984,
    "name": "WESTCHESTER AV/ROBERTS AV",
    "description": "",
    "accessible": 1,
    "lat": 40.845604,
    "lng": -73.834137
  },
  {
    "id": 100985,
    "name": "WESTCHESTER AV/MULFORD AV",
    "description": "",
    "accessible": 1,
    "lat": 40.844573,
    "lng": -73.835467
  },
  {
    "id": 101021,
    "name": "3 AV/E 153 ST",
    "description": "",
    "accessible": 1,
    "lat": 40.818712,
    "lng": -73.914144
  },
  {
    "id": 101027,
    "name": "3 AV/E 166 ST",
    "description": "",
    "accessible": 1,
    "lat": 40.828592,
    "lng": -73.906796
  },
  {
    "id": 101028,
    "name": "3 AV/E 168 ST",
    "description": "",
    "accessible": 1,
    "lat": 40.831331,
    "lng": -73.905596
  },
  {
    "id": 101029,
    "name": "3 AV/E 169 ST",
    "description": "",
    "accessible": 1,
    "lat": 40.833076,
    "lng": -73.904686
  },
  {
    "id": 101030,
    "name": "3 AV/ST PAULS PL",
    "description": "",
    "accessible": 1,
    "lat": 40.836219,
    "lng": -73.902564
  },
  {
    "id": 101034,
    "name": "3 AV/E 175 ST",
    "description": "",
    "accessible": 1,
    "lat": 40.844489,
    "lng": -73.897255
  },
  {
    "id": 101036,
    "name": "3 AV/E 180 ST",
    "description": "",
    "accessible": 1,
    "lat": 40.850925,
    "lng": -73.893834
  },
  {
    "id": 101055,
    "name": "3 AV/ST PAULS PL",
    "description": "",
    "accessible": 1,
    "lat": 40.835687,
    "lng": -73.903194
  },
  {
    "id": 101057,
    "name": "3 AV/E 168 ST",
    "description": "",
    "accessible": 1,
    "lat": 40.830768,
    "lng": -73.906088
  },
  {
    "id": 101058,
    "name": "3 AV/E 166 ST",
    "description": "",
    "accessible": 1,
    "lat": 40.827511,
    "lng": -73.907451
  },
  {
    "id": 101059,
    "name": "3 AV/E 163 ST",
    "description": "",
    "accessible": 1,
    "lat": 40.823866,
    "lng": -73.908942
  },
  {
    "id": 101061,
    "name": "3 AV/E 158 ST",
    "description": "",
    "accessible": 1,
    "lat": 40.821236,
    "lng": -73.912453
  },
  {
    "id": 101063,
    "name": "3 AV/E 154 ST",
    "description": "",
    "accessible": 1,
    "lat": 40.818704,
    "lng": -73.914396
  },
  {
    "id": 101066,
    "name": "3 AV/E 150 ST",
    "description": "",
    "accessible": 1,
    "lat": 40.816142,
    "lng": -73.917547
  },
  {
    "id": 101074,
    "name": "E 138 ST/3 AV",
    "description": "",
    "accessible": 1,
    "lat": 40.810945,
    "lng": -73.926956
  },
  {
    "id": 101137,
    "name": "BAINBRIDGE AV/E 212 ST",
    "description": "",
    "accessible": 1,
    "lat": 40.883777,
    "lng": -73.877631
  },
  {
    "id": 101138,
    "name": "BAINBRIDGE AV/JEROME AV",
    "description": "",
    "accessible": 1,
    "lat": 40.886792,
    "lng": -73.877784
  },
  {
    "id": 101140,
    "name": "E 233 ST/NAPIER AV",
    "description": "",
    "accessible": 1,
    "lat": 40.89568,
    "lng": -73.874901
  },
  {
    "id": 101142,
    "name": "E 233 ST/KEPLER AV",
    "description": "",
    "accessible": 1,
    "lat": 40.89659,
    "lng": -73.870592
  },
  {
    "id": 101146,
    "name": "WEBSTER AV/NEREID AV",
    "description": "",
    "accessible": 1,
    "lat": 40.900897,
    "lng": -73.861513
  },
  {
    "id": 101147,
    "name": "NEREID AV/CARPENTER AV",
    "description": "",
    "accessible": 1,
    "lat": 40.899354,
    "lng": -73.856861
  },
  {
    "id": 101148,
    "name": "NEREID AV/WHITE PLAINS RD",
    "description": "",
    "accessible": 1,
    "lat": 40.89844,
    "lng": -73.854552
  },
  {
    "id": 101149,
    "name": "NEREID AV/BYRON AV",
    "description": "",
    "accessible": 1,
    "lat": 40.897757,
    "lng": -73.852785
  },
  {
    "id": 101150,
    "name": "NEREID AV/BRUNER AV",
    "description": "",
    "accessible": 1,
    "lat": 40.898475,
    "lng": -73.849271
  },
  {
    "id": 101152,
    "name": "BAYCHESTER AV/PITMAN AV",
    "description": "",
    "accessible": 1,
    "lat": 40.896328,
    "lng": -73.845091
  },
  {
    "id": 101153,
    "name": "BAYCHESTER AV/EDENWALD AV",
    "description": "",
    "accessible": 1,
    "lat": 40.892974,
    "lng": -73.843749
  },
  {
    "id": 101154,
    "name": "E 233 ST/BAYCHESTER AV",
    "description": "",
    "accessible": 1,
    "lat": 40.888451,
    "lng": -73.841455
  },
  {
    "id": 101155,
    "name": "E 233 ST/MURDOCK AV",
    "description": "",
    "accessible": 1,
    "lat": 40.888592,
    "lng": -73.838741
  },
  {
    "id": 101156,
    "name": "E 233 ST/SETON AV",
    "description": "",
    "accessible": 1,
    "lat": 40.888976,
    "lng": -73.836006
  },
  {
    "id": 101157,
    "name": "E 233 ST/SECOR AV",
    "description": "",
    "accessible": 1,
    "lat": 40.889132,
    "lng": -73.831801
  },
  {
    "id": 101158,
    "name": "DYRE AV/LIGHT ST",
    "description": "",
    "accessible": 1,
    "lat": 40.88789,
    "lng": -73.831353
  },
  {
    "id": 101159,
    "name": "DYRE AV/BOSTON RD",
    "description": "",
    "accessible": 1,
    "lat": 40.884825,
    "lng": -73.83149
  },
  {
    "id": 101160,
    "name": "BOSTON RD/CONNER ST",
    "description": "",
    "accessible": 1,
    "lat": 40.885811,
    "lng": -73.828096
  },
  {
    "id": 101161,
    "name": "MC OWEN AV/BOSTON RD",
    "description": "",
    "accessible": 1,
    "lat": 40.889269,
    "lng": -73.820322
  },
  {
    "id": 101162,
    "name": "HOLLERS AV/ROPES AV",
    "description": "",
    "accessible": 1,
    "lat": 40.888055,
    "lng": -73.81792
  },
  {
    "id": 101163,
    "name": "ROPES AV/BOSTON RD",
    "description": "",
    "accessible": 1,
    "lat": 40.889844,
    "lng": -73.819521
  },
  {
    "id": 101164,
    "name": "NEREID AV/MURDOCK AV",
    "description": "",
    "accessible": 1,
    "lat": 40.899847,
    "lng": -73.843035
  },
  {
    "id": 101165,
    "name": "NEREID AV/MUNDY LA",
    "description": "",
    "accessible": 1,
    "lat": 40.900482,
    "lng": -73.840125
  },
  {
    "id": 101166,
    "name": "MUNDY LA/PITMAN AV",
    "description": "",
    "accessible": 1,
    "lat": 40.897981,
    "lng": -73.839679
  },
  {
    "id": 101167,
    "name": "ROPES AV/BOSTON RD",
    "description": "",
    "accessible": 1,
    "lat": 40.88997,
    "lng": -73.819647
  },
  {
    "id": 101169,
    "name": "DYRE AV/BOSTON RD",
    "description": "",
    "accessible": 1,
    "lat": 40.885069,
    "lng": -73.831237
  },
  {
    "id": 101170,
    "name": "DYRE AV/LIGHT ST",
    "description": "",
    "accessible": 1,
    "lat": 40.888242,
    "lng": -73.831214
  },
  {
    "id": 101171,
    "name": "E 233 ST/DYRE AV",
    "description": "",
    "accessible": 1,
    "lat": 40.889262,
    "lng": -73.831731
  },
  {
    "id": 101173,
    "name": "E 233 ST/SETON AV",
    "description": "",
    "accessible": 1,
    "lat": 40.888887,
    "lng": -73.836864
  },
  {
    "id": 101174,
    "name": "E 233 ST/MURDOCK AV",
    "description": "",
    "accessible": 1,
    "lat": 40.888787,
    "lng": -73.839695
  },
  {
    "id": 101175,
    "name": "BAYCHESTER AV/E 233 ST",
    "description": "",
    "accessible": 1,
    "lat": 40.888826,
    "lng": -73.841976
  },
  {
    "id": 101176,
    "name": "BAYCHESTER AV/EDENWALD AV",
    "description": "",
    "accessible": 1,
    "lat": 40.893232,
    "lng": -73.843722
  },
  {
    "id": 101177,
    "name": "BAYCHESTER AV/PITMAN AV",
    "description": "",
    "accessible": 1,
    "lat": 40.896567,
    "lng": -73.844945
  },
  {
    "id": 101178,
    "name": "SANFORD BL/S 11 AV",
    "description": "",
    "accessible": 1,
    "lat": 40.897937,
    "lng": -73.839093
  },
  {
    "id": 101179,
    "name": "NEREID AV/SETON AV",
    "description": "",
    "accessible": 1,
    "lat": 40.90041,
    "lng": -73.840943
  },
  {
    "id": 101180,
    "name": "NEREID AV/MURDOCK AV",
    "description": "",
    "accessible": 1,
    "lat": 40.899812,
    "lng": -73.843671
  },
  {
    "id": 101181,
    "name": "NEREID AV/BAYCHESTER AV",
    "description": "",
    "accessible": 1,
    "lat": 40.899209,
    "lng": -73.84657
  },
  {
    "id": 101182,
    "name": "NEREID AV/BRUNER AV",
    "description": "",
    "accessible": 1,
    "lat": 40.898445,
    "lng": -73.85003
  },
  {
    "id": 101183,
    "name": "NEREID AV/BYRON AV",
    "description": "",
    "accessible": 1,
    "lat": 40.897927,
    "lng": -73.852394
  },
  {
    "id": 101184,
    "name": "NEREID AV/WHITE PLAINS RD",
    "description": "",
    "accessible": 1,
    "lat": 40.898456,
    "lng": -73.854085
  },
  {
    "id": 101185,
    "name": "NEREID AV/CARPENTER AV",
    "description": "",
    "accessible": 1,
    "lat": 40.899725,
    "lng": -73.857316
  },
  {
    "id": 101186,
    "name": "WEBSTER AV/E 240 ST",
    "description": "",
    "accessible": 1,
    "lat": 40.900752,
    "lng": -73.861803
  },
  {
    "id": 101187,
    "name": "WEBSTER AV/E 235 ST",
    "description": "",
    "accessible": 1,
    "lat": 40.897767,
    "lng": -73.862641
  },
  {
    "id": 101188,
    "name": "WEBSTER AV/E 233 ST",
    "description": "",
    "accessible": 1,
    "lat": 40.895553,
    "lng": -73.863604
  },
  {
    "id": 101189,
    "name": "E 233 ST/KATONAH AV",
    "description": "",
    "accessible": 1,
    "lat": 40.896122,
    "lng": -73.866783
  },
  {
    "id": 101190,
    "name": "E 233 ST/KEPLER AV",
    "description": "",
    "accessible": 1,
    "lat": 40.896662,
    "lng": -73.870394
  },
  {
    "id": 101192,
    "name": "E 233 ST/NAPIER AV",
    "description": "",
    "accessible": 1,
    "lat": 40.895739,
    "lng": -73.875215
  },
  {
    "id": 101193,
    "name": "BAINBRIDGE AV/JEROME AV",
    "description": "",
    "accessible": 1,
    "lat": 40.886637,
    "lng": -73.877852
  },
  {
    "id": 101194,
    "name": "BAINBRIDGE AV/E 212 ST",
    "description": "",
    "accessible": 1,
    "lat": 40.883145,
    "lng": -73.877844
  },
  {
    "id": 101201,
    "name": "E 134 ST/WILLOW AV",
    "description": "",
    "accessible": 1,
    "lat": 40.801674,
    "lng": -73.913082
  },
  {
    "id": 101207,
    "name": "PROSPECT AV/E 149 ST",
    "description": "",
    "accessible": 1,
    "lat": 40.812625,
    "lng": -73.9043
  },
  {
    "id": 101208,
    "name": "PROSPECT AV/KELLY ST",
    "description": "",
    "accessible": 1,
    "lat": 40.815141,
    "lng": -73.903408
  },
  {
    "id": 101209,
    "name": "PROSPECT AV/E 156 ST",
    "description": "",
    "accessible": 1,
    "lat": 40.817602,
    "lng": -73.902364
  },
  {
    "id": 101210,
    "name": "PROSPECT AV/WESTCHESTER AV",
    "description": "",
    "accessible": 1,
    "lat": 40.820222,
    "lng": -73.901265
  },
  {
    "id": 101211,
    "name": "PROSPECT AV/E 163 ST",
    "description": "",
    "accessible": 1,
    "lat": 40.822417,
    "lng": -73.900358
  },
  {
    "id": 101213,
    "name": "PROSPECT AV/E 166 ST",
    "description": "",
    "accessible": 1,
    "lat": 40.825558,
    "lng": -73.899049
  },
  {
    "id": 101214,
    "name": "PROSPECT AV/HOME ST",
    "description": "",
    "accessible": 1,
    "lat": 40.828223,
    "lng": -73.897943
  },
  {
    "id": 101215,
    "name": "PROSPECT AV/E 169 ST",
    "description": "",
    "accessible": 1,
    "lat": 40.829682,
    "lng": -73.89733
  },
  {
    "id": 101216,
    "name": "PROSPECT AV/RITTER PL",
    "description": "",
    "accessible": 1,
    "lat": 40.831304,
    "lng": -73.896717
  },
  {
    "id": 101217,
    "name": "PROSPECT AV/BOSTON RD",
    "description": "",
    "accessible": 1,
    "lat": 40.833425,
    "lng": -73.896262
  },
  {
    "id": 101218,
    "name": "CROTONA AV/CLAREMONT PY",
    "description": "",
    "accessible": 1,
    "lat": 40.83641,
    "lng": -73.897722
  },
  {
    "id": 101219,
    "name": "CROTONA AV/E 175 ST",
    "description": "",
    "accessible": 1,
    "lat": 40.843059,
    "lng": -73.893135
  },
  {
    "id": 101223,
    "name": "CROTONA AV/E 180 ST",
    "description": "",
    "accessible": 1,
    "lat": 40.847998,
    "lng": -73.888859
  },
  {
    "id": 101224,
    "name": "CROTONA AV/E 182 ST",
    "description": "",
    "accessible": 1,
    "lat": 40.850181,
    "lng": -73.88648
  },
  {
    "id": 101225,
    "name": "CROTONA AV/E 183 ST",
    "description": "",
    "accessible": 1,
    "lat": 40.852023,
    "lng": -73.884493
  },
  {
    "id": 101226,
    "name": "CROTONA AV/E 187 ST",
    "description": "",
    "accessible": 1,
    "lat": 40.85419,
    "lng": -73.883397
  },
  {
    "id": 101227,
    "name": "CROTONA AV/E FORDHAM RD",
    "description": "",
    "accessible": 1,
    "lat": 40.857189,
    "lng": -73.881892
  },
  {
    "id": 101236,
    "name": "CROTONA AV/E 189 ST",
    "description": "",
    "accessible": 1,
    "lat": 40.855825,
    "lng": -73.882751
  },
  {
    "id": 101237,
    "name": "CROTONA AV/E 187 ST",
    "description": "",
    "accessible": 1,
    "lat": 40.853612,
    "lng": -73.883865
  },
  {
    "id": 101238,
    "name": "CROTONA AV/E 183 ST",
    "description": "",
    "accessible": 1,
    "lat": 40.851521,
    "lng": -73.885057
  },
  {
    "id": 101239,
    "name": "CROTONA AV/E 182 ST",
    "description": "",
    "accessible": 1,
    "lat": 40.850101,
    "lng": -73.886813
  },
  {
    "id": 101240,
    "name": "CROTONA AV/E 180 ST",
    "description": "",
    "accessible": 1,
    "lat": 40.848264,
    "lng": -73.888822
  },
  {
    "id": 101244,
    "name": "CROTONA AV/E 175 ST",
    "description": "",
    "accessible": 1,
    "lat": 40.842492,
    "lng": -73.893908
  },
  {
    "id": 101245,
    "name": "CROTONA AV/CLAREMONT PY",
    "description": "",
    "accessible": 1,
    "lat": 40.836561,
    "lng": -73.897783
  },
  {
    "id": 101246,
    "name": "PROSPECT AV/BOSTON RD",
    "description": "",
    "accessible": 1,
    "lat": 40.833615,
    "lng": -73.896504
  },
  {
    "id": 101247,
    "name": "PROSPECT AV/RITTER PL",
    "description": "",
    "accessible": 1,
    "lat": 40.830697,
    "lng": -73.897099
  },
  {
    "id": 101248,
    "name": "PROSPECT AV/E 169 ST",
    "description": "",
    "accessible": 1,
    "lat": 40.829276,
    "lng": -73.897739
  },
  {
    "id": 101249,
    "name": "PROSPECT AV/HOME ST",
    "description": "",
    "accessible": 1,
    "lat": 40.827551,
    "lng": -73.898472
  },
  {
    "id": 101250,
    "name": "PROSPECT AV/E 166 ST",
    "description": "",
    "accessible": 1,
    "lat": 40.825398,
    "lng": -73.899317
  },
  {
    "id": 101252,
    "name": "PROSPECT AV/E 163 ST",
    "description": "",
    "accessible": 1,
    "lat": 40.82176,
    "lng": -73.900835
  },
  {
    "id": 101253,
    "name": "PROSPECT AV/WESTCHESTER AV",
    "description": "",
    "accessible": 1,
    "lat": 40.819894,
    "lng": -73.901588
  },
  {
    "id": 101254,
    "name": "PROSPECT AV/E 156 ST",
    "description": "",
    "accessible": 1,
    "lat": 40.81706,
    "lng": -73.902782
  },
  {
    "id": 101255,
    "name": "PROSPECT AV/E 152 ST",
    "description": "",
    "accessible": 1,
    "lat": 40.81482,
    "lng": -73.903621
  },
  {
    "id": 101256,
    "name": "PROSPECT AV/E 149 ST",
    "description": "",
    "accessible": 1,
    "lat": 40.812347,
    "lng": -73.90448
  },
  {
    "id": 101262,
    "name": "E 135 ST/CYPRESS AV",
    "description": "",
    "accessible": 1,
    "lat": 40.803722,
    "lng": -73.915621
  },
  {
    "id": 101274,
    "name": "W TREMONT AV/MONTGOMERY AV",
    "description": "",
    "accessible": 1,
    "lat": 40.85187,
    "lng": -73.916638
  },
  {
    "id": 101275,
    "name": "MACOMBS RD/NELSON AV",
    "description": "",
    "accessible": 1,
    "lat": 40.848384,
    "lng": -73.916285
  },
  {
    "id": 101276,
    "name": "MACOMBS RD/FEATHERBED LA",
    "description": "",
    "accessible": 1,
    "lat": 40.845489,
    "lng": -73.917228
  },
  {
    "id": 101277,
    "name": "MACOMBS RD/GOBLE PL",
    "description": "",
    "accessible": 1,
    "lat": 40.844287,
    "lng": -73.917598
  },
  {
    "id": 101278,
    "name": "MACOMBS RD/INWOOD AV",
    "description": "",
    "accessible": 1,
    "lat": 40.84178,
    "lng": -73.917931
  },
  {
    "id": 101285,
    "name": "INWOOD AV/MACOMBS RD",
    "description": "",
    "accessible": 1,
    "lat": 40.841671,
    "lng": -73.918042
  },
  {
    "id": 101286,
    "name": "MACOMBS RD/GOBLE PL",
    "description": "",
    "accessible": 1,
    "lat": 40.844479,
    "lng": -73.917392
  },
  {
    "id": 101288,
    "name": "MACOMBS RD/W 176 ST",
    "description": "",
    "accessible": 1,
    "lat": 40.849149,
    "lng": -73.916029
  },
  {
    "id": 101289,
    "name": "W TREMONT AV/UNIVERSITY AV",
    "description": "",
    "accessible": 1,
    "lat": 40.850906,
    "lng": -73.915779
  },
  {
    "id": 101290,
    "name": "W TREMONT AV/LORING PL S",
    "description": "",
    "accessible": 1,
    "lat": 40.852034,
    "lng": -73.916808
  },
  {
    "id": 101294,
    "name": "UNDERCLIFF AV/W 174 ST",
    "description": "",
    "accessible": 1,
    "lat": 40.847579,
    "lng": -73.923251
  },
  {
    "id": 101295,
    "name": "UNDERCLIFF AV/W 172 ST",
    "description": "",
    "accessible": 1,
    "lat": 40.845071,
    "lng": -73.924631
  },
  {
    "id": 101297,
    "name": "SEDGWICK AV/W 172 ST",
    "description": "",
    "accessible": 1,
    "lat": 40.845853,
    "lng": -73.925304
  },
  {
    "id": 101306,
    "name": "E 149 ST/EXTERIOR ST",
    "description": "",
    "accessible": 1,
    "lat": 40.819235,
    "lng": -73.930052
  },
  {
    "id": 101307,
    "name": "E 149 ST/GRAND CONCOURSE",
    "description": "",
    "accessible": 1,
    "lat": 40.818377,
    "lng": -73.926861
  },
  {
    "id": 101309,
    "name": "E 149 ST/MORRIS AV",
    "description": "",
    "accessible": 1,
    "lat": 40.817178,
    "lng": -73.922383
  },
  {
    "id": 101310,
    "name": "E 149 ST/COURTLANDT AV",
    "description": "",
    "accessible": 1,
    "lat": 40.816543,
    "lng": -73.919779
  },
  {
    "id": 101313,
    "name": "E 149 ST/ST ANN'S AV",
    "description": "",
    "accessible": 1,
    "lat": 40.814223,
    "lng": -73.912863
  },
  {
    "id": 101314,
    "name": "E 149 ST/TRINITY AV",
    "description": "",
    "accessible": 1,
    "lat": 40.81342,
    "lng": -73.910157
  },
  {
    "id": 101315,
    "name": "E 149 ST/JACKSON AV",
    "description": "",
    "accessible": 1,
    "lat": 40.813105,
    "lng": -73.908684
  },
  {
    "id": 101316,
    "name": "E 149 ST/WALES AV",
    "description": "",
    "accessible": 1,
    "lat": 40.812779,
    "lng": -73.907136
  },
  {
    "id": 101318,
    "name": "SOUTHERN BL/E 149 ST",
    "description": "",
    "accessible": 1,
    "lat": 40.812179,
    "lng": -73.903625
  },
  {
    "id": 101320,
    "name": "SOUTHERN BL/E 156 ST",
    "description": "",
    "accessible": 1,
    "lat": 40.815124,
    "lng": -73.897299
  },
  {
    "id": 101321,
    "name": "SOUTHERN BL/LONGWOOD AV",
    "description": "",
    "accessible": 1,
    "lat": 40.816536,
    "lng": -73.895833
  },
  {
    "id": 101322,
    "name": "SOUTHERN BL/TIFFANY ST",
    "description": "",
    "accessible": 1,
    "lat": 40.818544,
    "lng": -73.893764
  },
  {
    "id": 101324,
    "name": "SOUTHERN BL/ALDUS ST",
    "description": "",
    "accessible": 1,
    "lat": 40.823173,
    "lng": -73.891755
  },
  {
    "id": 101327,
    "name": "SOUTHERN BL/E 167 ST",
    "description": "",
    "accessible": 1,
    "lat": 40.827187,
    "lng": -73.891876
  },
  {
    "id": 101328,
    "name": "SOUTHERN BL/FREEMAN ST",
    "description": "",
    "accessible": 1,
    "lat": 40.830046,
    "lng": -73.891826
  },
  {
    "id": 101329,
    "name": "SOUTHERN BL/JENNINGS ST",
    "description": "",
    "accessible": 1,
    "lat": 40.832286,
    "lng": -73.890706
  },
  {
    "id": 101330,
    "name": "SOUTHERN BL/E 172 ST",
    "description": "",
    "accessible": 1,
    "lat": 40.833943,
    "lng": -73.889728
  },
  {
    "id": 101332,
    "name": "SOUTHERN BL/BOSTON RD",
    "description": "",
    "accessible": 1,
    "lat": 40.8372,
    "lng": -73.88775
  },
  {
    "id": 101335,
    "name": "SOUTHERN BL/E TREMONT AV",
    "description": "",
    "accessible": 1,
    "lat": 40.843057,
    "lng": -73.885462
  },
  {
    "id": 101337,
    "name": "SOUTHERN BL/E 180 ST",
    "description": "",
    "accessible": 1,
    "lat": 40.845823,
    "lng": -73.884446
  },
  {
    "id": 101347,
    "name": "SOUTHERN BL/E 180 ST",
    "description": "",
    "accessible": 1,
    "lat": 40.846138,
    "lng": -73.884499
  },
  {
    "id": 101352,
    "name": "SOUTHERN BL/E 174 ST",
    "description": "",
    "accessible": 1,
    "lat": 40.837467,
    "lng": -73.887719
  },
  {
    "id": 101354,
    "name": "SOUTHERN BL/E 172 ST",
    "description": "",
    "accessible": 1,
    "lat": 40.834168,
    "lng": -73.889764
  },
  {
    "id": 101355,
    "name": "SOUTHERN BL/JENNINGS ST",
    "description": "",
    "accessible": 1,
    "lat": 40.832528,
    "lng": -73.890724
  },
  {
    "id": 101356,
    "name": "SOUTHERN BL/FREEMAN ST",
    "description": "",
    "accessible": 1,
    "lat": 40.830102,
    "lng": -73.891908
  },
  {
    "id": 101358,
    "name": "SOUTHERN BL/E 167 ST",
    "description": "",
    "accessible": 1,
    "lat": 40.826905,
    "lng": -73.891991
  },
  {
    "id": 101359,
    "name": "SOUTHERN BL/WESTCHESTER AV",
    "description": "",
    "accessible": 1,
    "lat": 40.824545,
    "lng": -73.891857
  },
  {
    "id": 101360,
    "name": "SOUTHERN BL/ALDUS ST",
    "description": "",
    "accessible": 1,
    "lat": 40.822869,
    "lng": -73.891817
  },
  {
    "id": 101362,
    "name": "SOUTHERN BL/TIFFANY ST",
    "description": "",
    "accessible": 1,
    "lat": 40.818478,
    "lng": -73.894129
  },
  {
    "id": 101363,
    "name": "SOUTHERN BL/LONGWOOD AV",
    "description": "",
    "accessible": 1,
    "lat": 40.816076,
    "lng": -73.896607
  },
  {
    "id": 101364,
    "name": "SOUTHERN BL/E 156 ST",
    "description": "",
    "accessible": 1,
    "lat": 40.81471,
    "lng": -73.898025
  },
  {
    "id": 101366,
    "name": "SOUTHERN BL/E 149 ST",
    "description": "",
    "accessible": 1,
    "lat": 40.812224,
    "lng": -73.903953
  },
  {
    "id": 101368,
    "name": "E 149 ST/TINTON AV",
    "description": "",
    "accessible": 1,
    "lat": 40.812659,
    "lng": -73.906146
  },
  {
    "id": 101369,
    "name": "E 149 ST/CONCORD AV",
    "description": "",
    "accessible": 1,
    "lat": 40.813155,
    "lng": -73.90855
  },
  {
    "id": 101370,
    "name": "E 149 ST/TRINITY AV",
    "description": "",
    "accessible": 1,
    "lat": 40.813559,
    "lng": -73.910473
  },
  {
    "id": 101372,
    "name": "E 149 ST/BROOK AV",
    "description": "",
    "accessible": 1,
    "lat": 40.815166,
    "lng": -73.915301
  },
  {
    "id": 101374,
    "name": "E 149 ST/COURTLANDT AV",
    "description": "",
    "accessible": 1,
    "lat": 40.816745,
    "lng": -73.919846
  },
  {
    "id": 101375,
    "name": "E 149 ST/MORRIS AV",
    "description": "",
    "accessible": 1,
    "lat": 40.817533,
    "lng": -73.923013
  },
  {
    "id": 101377,
    "name": "E 149 ST/GRAND CONCOURSE",
    "description": "",
    "accessible": 1,
    "lat": 40.818589,
    "lng": -73.927078
  },
  {
    "id": 101378,
    "name": "E 149 ST/GERARD AV",
    "description": "",
    "accessible": 1,
    "lat": 40.819092,
    "lng": -73.929075
  },
  {
    "id": 101389,
    "name": "3 AV/E 140 ST",
    "description": "",
    "accessible": 1,
    "lat": 40.812096,
    "lng": -73.925062
  },
  {
    "id": 101401,
    "name": "3 AV/E 163 ST",
    "description": "",
    "accessible": 1,
    "lat": 40.824381,
    "lng": -73.908417
  },
  {
    "id": 101402,
    "name": "BOSTON RD/E 166 ST",
    "description": "",
    "accessible": 1,
    "lat": 40.827328,
    "lng": -73.904705
  },
  {
    "id": 101405,
    "name": "BOSTON RD/E 169 ST",
    "description": "",
    "accessible": 1,
    "lat": 40.831323,
    "lng": -73.899774
  },
  {
    "id": 101406,
    "name": "BOSTON RD/PROSPECT AV",
    "description": "",
    "accessible": 1,
    "lat": 40.833606,
    "lng": -73.895962
  },
  {
    "id": 101407,
    "name": "BOSTON RD/LOUIS NINE BL",
    "description": "",
    "accessible": 1,
    "lat": 40.835052,
    "lng": -73.893891
  },
  {
    "id": 101408,
    "name": "BOSTON RD/SEABURY PL",
    "description": "",
    "accessible": 1,
    "lat": 40.83581,
    "lng": -73.890386
  },
  {
    "id": 101409,
    "name": "BOSTON RD/SOUTHERN BL",
    "description": "",
    "accessible": 1,
    "lat": 40.837001,
    "lng": -73.8883
  },
  {
    "id": 101410,
    "name": "BOSTON RD/VYSE AV",
    "description": "",
    "accessible": 1,
    "lat": 40.839112,
    "lng": -73.884631
  },
  {
    "id": 101411,
    "name": "BOSTON RD/E TREMONT AV",
    "description": "",
    "accessible": 1,
    "lat": 40.840056,
    "lng": -73.880442
  },
  {
    "id": 101414,
    "name": "MORRIS PK AV/E TREMONT AV",
    "description": "",
    "accessible": 1,
    "lat": 40.840129,
    "lng": -73.873289
  },
  {
    "id": 101415,
    "name": "MORRIS PK AV/ADAMS ST",
    "description": "",
    "accessible": 1,
    "lat": 40.841559,
    "lng": -73.872235
  },
  {
    "id": 101416,
    "name": "MORRIS PK AV/TAYLOR AV",
    "description": "",
    "accessible": 1,
    "lat": 40.843598,
    "lng": -73.870125
  },
  {
    "id": 101418,
    "name": "MORRIS PK AV/WHITE PLAINS RD",
    "description": "",
    "accessible": 1,
    "lat": 40.845264,
    "lng": -73.865648
  },
  {
    "id": 101419,
    "name": "MORRIS PK AV/BARNES AV",
    "description": "",
    "accessible": 1,
    "lat": 40.845995,
    "lng": -73.862168
  },
  {
    "id": 101420,
    "name": "MORRIS PK AV/BRONXDALE AV",
    "description": "",
    "accessible": 1,
    "lat": 40.846573,
    "lng": -73.859604
  },
  {
    "id": 101421,
    "name": "MORRIS PK AV/RADCLIFF AV",
    "description": "",
    "accessible": 1,
    "lat": 40.847849,
    "lng": -73.856703
  },
  {
    "id": 101422,
    "name": "MORRIS PK AV/HONE AV",
    "description": "",
    "accessible": 1,
    "lat": 40.848875,
    "lng": -73.854407
  },
  {
    "id": 101423,
    "name": "MORRIS PK AV/WILLIAMSBRIDGE RD",
    "description": "",
    "accessible": 1,
    "lat": 40.850196,
    "lng": -73.851501
  },
  {
    "id": 101424,
    "name": "MORRIS PK AV/SEMINOLE AV",
    "description": "",
    "accessible": 1,
    "lat": 40.851034,
    "lng": -73.848417
  },
  {
    "id": 101425,
    "name": "MORRIS PK AV/EASTCHESTER RD",
    "description": "",
    "accessible": 1,
    "lat": 40.851068,
    "lng": -73.844607
  },
  {
    "id": 101437,
    "name": "MORRIS PK AV/EASTCHESTER RD",
    "description": "",
    "accessible": 1,
    "lat": 40.851271,
    "lng": -73.844385
  },
  {
    "id": 101438,
    "name": "MORRIS PK AV/SEMINOLE AV",
    "description": "",
    "accessible": 1,
    "lat": 40.85113,
    "lng": -73.84805
  },
  {
    "id": 101440,
    "name": "MORRIS PK AV/HONE AV",
    "description": "",
    "accessible": 1,
    "lat": 40.848722,
    "lng": -73.854977
  },
  {
    "id": 101441,
    "name": "MORRIS PK AV/RADCLIFF AV",
    "description": "",
    "accessible": 1,
    "lat": 40.847589,
    "lng": -73.857469
  },
  {
    "id": 101443,
    "name": "MORRIS PK AV/BARNES AV",
    "description": "",
    "accessible": 1,
    "lat": 40.845906,
    "lng": -73.862979
  },
  {
    "id": 101444,
    "name": "MORRIS PK AV/WHITE PLAINS RD",
    "description": "",
    "accessible": 1,
    "lat": 40.845158,
    "lng": -73.866587
  },
  {
    "id": 101446,
    "name": "MORRIS PK AV/MELVILLE  ST",
    "description": "",
    "accessible": 1,
    "lat": 40.843213,
    "lng": -73.870911
  },
  {
    "id": 101447,
    "name": "MORRIS PK AV/E 180 ST",
    "description": "",
    "accessible": 1,
    "lat": 40.840766,
    "lng": -73.872911
  },
  {
    "id": 101448,
    "name": "E TREMONT AV/MORRIS PK AV",
    "description": "",
    "accessible": 1,
    "lat": 40.839878,
    "lng": -73.873986
  },
  {
    "id": 101453,
    "name": "BOSTON RD/VYSE AV",
    "description": "",
    "accessible": 1,
    "lat": 40.839528,
    "lng": -73.883665
  },
  {
    "id": 101455,
    "name": "BOSTON RD/SOUTHERN BL",
    "description": "",
    "accessible": 1,
    "lat": 40.837153,
    "lng": -73.888206
  },
  {
    "id": 101456,
    "name": "BOSTON RD/E 173 ST",
    "description": "",
    "accessible": 1,
    "lat": 40.836022,
    "lng": -73.890378
  },
  {
    "id": 101457,
    "name": "BOSTON RD/LOUIS NINE BL",
    "description": "",
    "accessible": 1,
    "lat": 40.83462,
    "lng": -73.894565
  },
  {
    "id": 101458,
    "name": "BOSTON RD/PROSPECT AV",
    "description": "",
    "accessible": 1,
    "lat": 40.833428,
    "lng": -73.896779
  },
  {
    "id": 101459,
    "name": "BOSTON RD/E 169 ST",
    "description": "",
    "accessible": 1,
    "lat": 40.830926,
    "lng": -73.900787
  },
  {
    "id": 101460,
    "name": "BOSTON RD/E 168 ST",
    "description": "",
    "accessible": 1,
    "lat": 40.829374,
    "lng": -73.902632
  },
  {
    "id": 101461,
    "name": "BOSTON RD/E 166 ST",
    "description": "",
    "accessible": 1,
    "lat": 40.827073,
    "lng": -73.905269
  },
  {
    "id": 101469,
    "name": "3 AV/E 148 ST",
    "description": "",
    "accessible": 1,
    "lat": 40.815342,
    "lng": -73.919123
  },
  {
    "id": 101472,
    "name": "3 AV/E 138 ST",
    "description": "",
    "accessible": 1,
    "lat": 40.811053,
    "lng": -73.927386
  },
  {
    "id": 101473,
    "name": "E 136 ST/LINCOLN AV",
    "description": "",
    "accessible": 1,
    "lat": 40.809653,
    "lng": -73.928362
  },
  {
    "id": 101478,
    "name": "CASTLE HILL AV/NORTON AV",
    "description": "",
    "accessible": 1,
    "lat": 40.814728,
    "lng": -73.846917
  },
  {
    "id": 101479,
    "name": "CASTLE HILL AV/LACOMBE AV",
    "description": "",
    "accessible": 1,
    "lat": 40.817262,
    "lng": -73.847486
  },
  {
    "id": 101480,
    "name": "CASTLE HILL AV/RANDALL AV",
    "description": "",
    "accessible": 1,
    "lat": 40.819406,
    "lng": -73.848072
  },
  {
    "id": 101481,
    "name": "CASTLE HILL AV/SEWARD AV",
    "description": "",
    "accessible": 1,
    "lat": 40.821456,
    "lng": -73.848538
  },
  {
    "id": 101484,
    "name": "CASTLE HILL AV/QUIMBY AV",
    "description": "",
    "accessible": 1,
    "lat": 40.826079,
    "lng": -73.849609
  },
  {
    "id": 101485,
    "name": "CASTLE HILL AV/BRUCKNER BL",
    "description": "",
    "accessible": 1,
    "lat": 40.827891,
    "lng": -73.850054
  },
  {
    "id": 101486,
    "name": "CASTLE HILL AV/WATSON AV",
    "description": "",
    "accessible": 1,
    "lat": 40.829679,
    "lng": -73.850479
  },
  {
    "id": 101487,
    "name": "CASTLE HILL AV/CROSS BX SVC RD N",
    "description": "",
    "accessible": 1,
    "lat": 40.830822,
    "lng": -73.850723
  },
  {
    "id": 101488,
    "name": "CASTLE HILL AV/GLEASON AV",
    "description": "",
    "accessible": 1,
    "lat": 40.832242,
    "lng": -73.851
  },
  {
    "id": 101489,
    "name": "CASTLE HILL AV/WESTCHESTER AV",
    "description": "",
    "accessible": 1,
    "lat": 40.834551,
    "lng": -73.851652
  },
  {
    "id": 101490,
    "name": "STARLING AV/PURDY ST",
    "description": "",
    "accessible": 1,
    "lat": 40.83634,
    "lng": -73.853098
  },
  {
    "id": 101491,
    "name": "STARLING AV/UNIONPORT RD",
    "description": "",
    "accessible": 1,
    "lat": 40.83603,
    "lng": -73.855733
  },
  {
    "id": 101494,
    "name": "UNIONPORT RD/E TREMONT AV",
    "description": "",
    "accessible": 1,
    "lat": 40.841198,
    "lng": -73.863296
  },
  {
    "id": 101496,
    "name": "WHITE PLAINS RD/VAN NEST AV",
    "description": "",
    "accessible": 1,
    "lat": 40.844084,
    "lng": -73.865589
  },
  {
    "id": 101497,
    "name": "WHITE PLAINS RD/MORRIS PK AV",
    "description": "",
    "accessible": 1,
    "lat": 40.845557,
    "lng": -73.866194
  },
  {
    "id": 101498,
    "name": "WHITE PLAINS RD/RHINELANDER AV",
    "description": "",
    "accessible": 1,
    "lat": 40.847846,
    "lng": -73.866948
  },
  {
    "id": 101499,
    "name": "WHITE PLAINS RD/BRONXDALE AV",
    "description": "",
    "accessible": 1,
    "lat": 40.851305,
    "lng": -73.867689
  },
  {
    "id": 101512,
    "name": "RESERVOIR AV/W 195 ST",
    "description": "",
    "accessible": 1,
    "lat": 40.869501,
    "lng": -73.898932
  },
  {
    "id": 101525,
    "name": "GOULDEN AV/BEDFORD PK BL",
    "description": "",
    "accessible": 1,
    "lat": 40.875294,
    "lng": -73.894407
  },
  {
    "id": 101530,
    "name": "VALENTINE AV/E 192 ST",
    "description": "",
    "accessible": 1,
    "lat": 40.864178,
    "lng": -73.894444
  },
  {
    "id": 101540,
    "name": "WHITE PLAINS RD/PELHAM PKY",
    "description": "",
    "accessible": 1,
    "lat": 40.856843,
    "lng": -73.867681
  },
  {
    "id": 101542,
    "name": "BRONX PARK E/BRADY AV",
    "description": "",
    "accessible": 1,
    "lat": 40.852495,
    "lng": -73.868869
  },
  {
    "id": 101543,
    "name": "BRONX PK E/UNIONPORT RD",
    "description": "",
    "accessible": 1,
    "lat": 40.850531,
    "lng": -73.86814
  },
  {
    "id": 101545,
    "name": "WHITE PLAINS RD/RHINELANDER AV",
    "description": "",
    "accessible": 1,
    "lat": 40.847182,
    "lng": -73.866894
  },
  {
    "id": 101547,
    "name": "WHITE PLAINS RD/VAN NEST AV",
    "description": "",
    "accessible": 1,
    "lat": 40.843493,
    "lng": -73.865576
  },
  {
    "id": 101548,
    "name": "UNIONPORT RD/E TREMONT AV",
    "description": "",
    "accessible": 1,
    "lat": 40.840999,
    "lng": -73.863405
  },
  {
    "id": 101551,
    "name": "UNIONPORT RD/STARLING AV",
    "description": "",
    "accessible": 1,
    "lat": 40.836,
    "lng": -73.85617
  },
  {
    "id": 101552,
    "name": "STARLING AV/PURDY ST",
    "description": "",
    "accessible": 1,
    "lat": 40.836224,
    "lng": -73.852783
  },
  {
    "id": 101553,
    "name": "CASTLE HILL AV/WESTCHESTER AV",
    "description": "",
    "accessible": 1,
    "lat": 40.833834,
    "lng": -73.851581
  },
  {
    "id": 101554,
    "name": "CASTLE HILL AV/GLEASON AV",
    "description": "",
    "accessible": 1,
    "lat": 40.831602,
    "lng": -73.851029
  },
  {
    "id": 101555,
    "name": "CASTLE HILL AV/CROSS BX SVC RD N",
    "description": "",
    "accessible": 1,
    "lat": 40.829964,
    "lng": -73.850634
  },
  {
    "id": 101556,
    "name": "CASTLE HILL AV/CHATTERTON AV",
    "description": "",
    "accessible": 1,
    "lat": 40.828016,
    "lng": -73.850206
  },
  {
    "id": 101557,
    "name": "CASTLE HILL AV/BRUCKNER BL",
    "description": "",
    "accessible": 1,
    "lat": 40.826582,
    "lng": -73.849847
  },
  {
    "id": 101561,
    "name": "CASTLE HILL AV/SEWARD AV",
    "description": "",
    "accessible": 1,
    "lat": 40.820786,
    "lng": -73.848494
  },
  {
    "id": 101562,
    "name": "CASTLE HILL AV/RANDALL AV",
    "description": "",
    "accessible": 1,
    "lat": 40.818611,
    "lng": -73.848003
  },
  {
    "id": 101563,
    "name": "CASTLE HILL AV/LACOMBE AV",
    "description": "",
    "accessible": 1,
    "lat": 40.817004,
    "lng": -73.847699
  },
  {
    "id": 101564,
    "name": "CASTLE HILL AV/NORTON AV",
    "description": "",
    "accessible": 1,
    "lat": 40.814484,
    "lng": -73.847095
  },